$GPZDA,144956.50,16,09,2022,00,00*64
!AIVDM,1,1,,A,13mv7e0000PgOcRTBtWA10?h0L0t,0*3E
$GPGGA,144956.50,6326.3040,N,01024.5390,E,1,12,0.7,12.3,M,41.4,M,,*59
$PSIMSNS,144958.470,,1,1,0.13,-0.52,-0.01,200.56,,40,0.000,,M121*2D
!AIVDM,1,1,,A,13ob6@0P000gKS0TBveJKgwp2d1=,0*7E
$VDVLW,76126.93,N,15896.57,N*50
$IIMWV,100,R,3.3,M,A*21
!AIVDM,1,1,,B,13m=18003m0gMKDTCb=Ep4il08Qk,0*4B
!AIVDM,1,1,,B,1CmClB0Oi60cE@NTJWSHeW7l0000,0*54
$GPGBS,144957.50,2.1,2.6,2.1,,,,,1,1*4A
!AIVDO,1,1,,A,13nGtL0000PgaPLTC;h7CnAl2HQp,0*55
!AIVDO,1,1,,,13nGtL0000PgaPLTC;h7CnAl2000,0*4D
$VDVBW,-0.2,,A,,,V*47
!AIVDM,1,1,,B,H3mwM@5J>F3ihmk<6mjkk00`3210,0*17
$GPRMC,144957.50,A,6326.3040,N,01024.5390,E,0.0,184.8,160922,4.5,E,A,S*41
$GPVTG,184.8,T,180.3,M,0.0,N,0.0,K,A*2C
$GPZDA,144957.50,16,09,2022,00,00*65
!AIVDM,1,1,,A,33m9Tg0Oi7PfdktTClf62UGj00bh,0*46
\10\215iR\274\327\255\23*%bFQjI\376\241RBD\16b\320\202\16\204\302F\250iJ\326\226\10\241\353JF\343Z\302\226B(l\341Z\322FV\32H\3!hH\303!KJ\26\\\306\222\317h\202F\302B\326BB\344\341\322\376\30\215kR\4!J\302\241{$GPGGA,144957.50,6326.3040,N,01024.5390,E,1,12,0.7,12.3,M,41.4,M,,*58
$PSIMSNS,144959.471,,1,1,0.14,-0.52,-0.01,200.56,,40,0.000,,M121*2A
$IIMWV,106,R,3.6,M,A*22
$GPGBS,144958.50,2.0,2.7,2.2,,,,,1,1*46
!AIVDO,1,1,,,13nGtL0000PgaPLTC;h7>6An2000,0*6A
!AIVDM,1,1,,B,1CmJkt001H0cR8:TJp>l6SEd0000,0*6D
$GPRMC,144958.50,A,6326.3040,N,01024.5390,E,0.0,184.9,160922,4.5,E,A,S*4F
$GPVTG,184.9,T,180.4,M,0.0,N,0.0,K,A*2A
$GPZDA,144958.50,16,09,2022,00,00*6A
!AIVDM,1,1,,B,33m9Tg0Oi6PfdlPTClan75Gl011i,0*08
$GPGGA,144958.50,6326.3040,N,01024.5390,E,1,12,0.7,12.3,M,41.4,M,,*57
!AIVDM,1,1,,B,13m?1@5000PgVTJTC=C0O4GT08Re,0*70
!AIVDM,1,1,,B,13m9Tb0PASPfLOPTEacdRqul05k4,0*45
$PSIMSNS,145000.475,,1,1,0.14,-0.52,-0.01,200.56,,40,0.000,,M121*2A
$IIMWV,082,R,3.9,M,A*20
!AIVDM,1,1,,A,13m=18003m0gMP2TCagmpDh00<11,0*47
$GPGBS,144959.50,2.3,2.7,2.2,,,,,1,1*44
!AIVDM,1,1,,B,B3n4a`P000<1;r94kEgQ3wuQjDIr,0*4B
!AIVDO,1,1,,,13nGtL0000PgaPLTC;h7>F@02000,0*45
$GPRMC,144959.50,A,6326.3040,N,01024.5390,E,0.0,183.3,160922,4.5,E,A,S*43
$GPVTG,183.3,T,178.8,M,0.0,N,0.0,K,A*2C
$GPZDA,144959.50,16,09,2022,00,00*6B
$GPGGA,144959.50,6326.3040,N,01024.5390,E,1,12,0.7,12.3,M,41.4,M,,*56
$PSIMSNS,145001.476,,1,1,0.14,-0.53,0.00,200.56,,40,0.000,,M121*05
!AIVDM,1,1,,A,402MN7ivJH>is0gWgVTCDV?02D0W,0*37
$VDVLW,76126.93,N,15896.57,N*50
!AIVDM,1,1,,A,402M43AvJH>is0frsPTBHl700<1A,0*05
$IIMWV,085,R,3.9,M,A*27
$GPGBS,145000.50,2.1,2.4,2.2,,,,,1,1*41
!AIVDO,1,1,,,13nGtL0000PgaPLTC;h7:F@22000,0*43
$GPRMC,145000.50,A,6326.3040,N,01024.5390,E,0.0,182.4,160922,4.5,E,A,S*41
!AIVDM,1,1,,A,33m9Tb0PAQPfLM0TEamtOIt001:h,0*4B
$GPVTG,182.4,T,177.9,M,0.0,N,0.0,K,A*24
$VDVBW,-0.2,,A,,,V*47
$GPZDA,145000.50,16,09,2022,00,00*6F
$GPGGA,145000.50,6326.3040,N,01024.5390,E,1,12,0.7,12.3,M,41.4,M,,*52
!AIVDM,1,1,,A,13mEcl50000fduVTCbB`j73n0@0f,0*66
$PSIMSNS,145002.477,,1,1,0.14,-0.52,0.00,200.55,,40,0.000,,M121*05
!AIVDM,1,1,,B,13m=180PCm0gMRDTCaPUpTh405k8,0*61
$IIMWV,086,R,4.0,M,A*2A
$GPGBS,145001.50,2.0,2.5,2.1,,,,,1,1*43
!AIVDM,1,1,,A,3CmClB0Oi60cE<FTJWF`mG:40000,0*51
!AIVDO,1,1,,,13nGtL0000PgaPLTC;h786@42000,0*37
$GPRMC,145001.50,A,6326.3040,N,01024.5390,E,0.0,171.7,160922,4.5,E,A,S*4F
$GPVTG,171.7,T,167.2,M,0.0,N,0.0,K,A*21
!AIVDM,1,1,,A,H3mAJi18U@60l58TD0000000000,2*3B
$GPZDA,145001.50,16,09,2022,00,00*6E
$GPGGA,145001.50,6326.3040,N,01024.5390,E,1,12,0.7,12.3,M,41.4,M,,*53
$PSIMSNS,145003.477,,1,1,0.13,-0.52,0.00,200.55,,40,0.000,,M121*03
$PFEC,idfnc,R,4*3C
$IIMWV,100,R,4.3,M,A*26
!AIVDM,1,1,,A,1Cn=<t001@0cTo<TM>qA8Pp20000,0*57
!AIVDM,1,1,,A,13m9nt0P00PgP8hTBv34Owv42H1T,0*3F
$GPGBS,145002.50,2.0,2.5,2.1,,,,,1,1*40
!AIVDM,1,1,,A,33m9Tg0Oi5PfdndTClH62UH401uh,0*38
!AIVDO,1,1,,,13nGtL0000PgaPLTC;h6eF@62000,0*19
!AIVDM,1,1,,B,33m9Tb0PAPPfLJNTEawtIIt400UP,0*7E
$GPRMC,145002.50,A,6326.3040,N,01024.5390,E,0.0,174.5,160922,4.5,E,A,S*4B
!AIVDM,1,1,,A,13mHaA004k0f1G>TDTJCq3060D0e,0*48
$GPVTG,174.5,T,170.0,M,0.0,N,0.0,K,A*22
$GPZDA,145002.50,16,09,2022,00,00*6D
$GPGGA,145002.50,6326.3040,N,01024.5390,E,1,12,0.7,12.3,M,41.4,M,,*50
$PSIMSNS,145004.478,,1,1,0.14,-0.52,0.00,200.56,,40,0.000,,M121*0F
$VDVLW,76126.93,N,15896.57,N*50
$IIMWV,098,R,4.8,M,A*2D
!AIVDM,1,1,,A,13m=18003m0gMaDTC`lUpDh80826,0*3A
$GPGBS,145003.50,2.6,4.0,3.9,,,,,1,1*4D
!AIVDO,1,1,,,13nGtL0000PgaPLTC;h6lF@82000,0*1E
$GPRMC,145003.50,A,6326.3040,N,01024.5390,E,0.0,176.0,160922,4.5,E,A,S*4D
$GPVTG,176.0,T,171.6,M,0.0,N,0.0,K,A*22
$GPZDA,145003.50,16,09,2022,00,00*6C
$VDVBW,-0.2,,A,,,V*47
[\256\25\355e\235\353\273v\326\25466\255\366vm6\255vm6\355vm6-v\355\355\332\332Zv\255\266\355\266\225\353\267q_[ey\247\235\227\227\215\225\223\243\225\237\247}\247\223\231\233\223\243\231\237\227\237\247c\247\237\235\237\233\227\243\225\231\215\237\247u\247\237\243\237\247\235\217\221\243\235\247\235\223\237\215\233\233\247\227\243\225\247u\247}\247Y\253\227}\345\353\267q_SWq\247\235\217\221\243\235\247W\247\235\217\233\243\223\247e\247\237\243\237\247c\247\237\243\237\247i\247}\253\233\235\345\353\267q_Kw}\247\235\227\227\215\225\223\243\225\237\247\235\223\247\237\215\247\233\237\233\233\247\237\237\247\237\237\253\223\227\345\353\267q_qq}\247\235\227\227\215\225\223\243\225\237\247\223\231\233\223\243\231\237\227\237\247c\247\237\235\237\233\227\243\225\231\215\237\247u\247\235\247\235\233\247\237\243\221\247\235\233\243\231\247e\247\227\235\243\227\247e\247\247\253\225\215\345\353\0[\256\25\355e\235\353\273v\326\254\266\255\366vm6\255vm6mvm6\255v\355\355\332\332Zv\255\266\355\326\225\353\267q_[ey\247\235\227\227\215\225\221\243\225\237\247}\247\223\231\233\223\243\231\237\227\237\247c\247\237\235\237\233\227\243\225\231\215\237\247u\247\237\243\237\247\235\217\227\243\217\247\235\223\237\215\233\233\247\227\243\225\247u\247}\247Y\253\227\235\345\353\267q_SWq\247\235\217\227\243\217\247W\247\235\217\237\243\231\247e\247\237\243\237\247c\247\237\243\237\247i\247}\253\233y\345\353\267q_Kw}\247\235\227\227\215\225\221\243\225\237\247\235\223\247\237\215\247\233\237\233\233\247\237\237\247\237\237\253\223\225\345\353\267q_qq}\247\235\227\227\215\225\221\243\225\237\247\223\231\233\223\243\231\237\227\237\247c\247\237\235\237\233\227\243\225\231\215\237\247u\247\235\247\235\233\247\237\243\221\247\235\233\243\231\247e\247\227\235\243\227\247e\247\247\253\225\217\345\353\0[\256\25\355e\235\353\273v\326\254\366l\255\331vm6\355vm6-vm6mv\355\355\332\332Zv\255\266\3556Vo\357[\327\265U+\235\353\273v\326\254\366l\255\331v\255\235\233\313\26666-\366v\366vm\353\332\326\366\266v6\255\226\326\354v\255\235\373\33\373v\353\366v!AIVDM,1,1,,A,13m9Tb0PAOPfLI@TEb4tPIt600SD,0*24
$GPGGA,145003.50,6326.3040,N,01024.5390,E,1,12,0.7,12.3,M,41.4,M,,*51
$PSIMSNS,145005.482,,1,1,0.14,-0.52,0.00,200.56,,40,0.001,,M121*0A
$IIMWV,114,R,4.6,M,A*26
!AIVDM,1,1,,B,1CmFun00180cEabTJglnp5PN0000,0*5B
$GPGBS,145004.50,2.7,3.8,3.7,,,,,1,1*4A
!AIVDO,1,1,,,13nGtL0000PgaPLTC;h6p6@:2000,0*70
$GPRMC,145004.50,A,6326.3040,N,01024.5390,E,0.0,176.1,160922,4.5,E,A,S*4B
$GPVTG,176.1,T,171.6,M,0.0,N,0.0,K,A*23
$GPZDA,145004.50,16,09,2022,00,00*6B
$GPGGA,145004.50,6326.3040,N,01024.5390,E,1,12,0.7,12.3,M,41.4,M,,*56
$PSIMSNS,145006.483,,1,1,0.13,-0.52,0.00,200.55,,40,0.001,,M121*0C
$IIMWV,116,R,4.2,M,A*20
!AIVDM,1,1,,B,13m=18003m0gMf4TC`Fmolh<083@,0*18
$GPGBS,145005.50,2.2,4.2,4.0,,,,,1,1*43
!AIVDO,1,1,,,13nGtL0000PgaPLTC;h6pF@<2000,0*06
$GPRMC,145005.50,A,6326.3040,N,01024.5390,E,0.0,166.6,160922,4.5,E,A,S*4C
!AIVDM,1,1,,A,1Cn2pj00000cpwtTMj1PFD><0000,0*20
$GPVTG,166.6,T,162.1,M,0.0,N,0.0,K,A*20
$GPZDA,145005.50,16,09,2022,00,00*6A
!AIVDM,1,1,,B,13mv7e0000PgOc@TBtWA10<:0L0s,0*79
$GPGGA,145005.50,6326.3040,N,01024.5390,E,1,12,0.7,12.3,M,41.4,M,,*57
$VDVLW,76126.93,N,15896.57,N*50
!AIVDM,1,1,,B,13m7rcP001PgVP2TC=`ia4H8083c,0*50
$PSIMSNS,145007.483,,1,1,0.12,-0.53,0.00,200.56,,40,0.001,,M121*0E
!AIVDM,1,1,,A,H3mBJL0P599V08u9@PDp0000000,2*25
$IIMWV,115,R,3.6,M,A*20
!AIVDM,1,1,,A,402LoOivJH>j5PekdrTE?0700<0H,0*25
$GPGBS,145006.50,2.1,3.7,3.6,,,,,1,1*40
!AIVDM,1,1,,A,H3mBJL5J0000000<3?70000p8220,0*44
!AIVDO,1,1,,,13nGtL0000PgaPLTC;h6PV@>2000,0*34
!AIVDM,1,1,,B,33m9Tb0PAMPfLEjTEbCtMat<01;h,0*0C
$GPRMC,145006.50,A,6326.3040,N,01024.5390,E,0.0,166.4,160922,4.5,E,A,S*4D
!AIVDM,1,1,,A,H3m9G904DLU8000000000000000,2*24
$GPVTG,166.4,T,161.9,M,0.0,N,0.0,K,A*29
$GPZDA,145006.50,16,09,2022,00,00*69
!AIVDM,1,1,,A,13mU5G0P01Pgb6@TC;oP0?vD05k8,0*54
$GPGGA,145006.50,6326.3040,N,01024.5390,E,1,12,0.7,12.3,M,41.4,M,,*54
$PSIMSNS,145008.483,,1,1,0.13,-0.52,0.00,200.55,,40,0.000,,M121*03
$VDVBW,-0.3,,A,,,V*46
!AIVDM,1,1,,B,B3nW>wP008;rHsa4hkoQ3wSQnDl:,0*6C
$IIMWV,105,R,3.6,M,A*21
!AIVDM,1,1,,A,13m=18003m0gMjjTCWqUolh@0D10,0*03
$GPGBS,145007.50,2.3,4.0,3.4,,,,,1,1*41
!AIVDO,1,1,,,13nGtL0000PgaPLTC;h6P6@@2000,0*2A
$GPRMC,145007.50,A,6326.3040,N,01024.5390,E,0.0,170.9,160922,4.5,E,A,S*46
$GPVTG,170.9,T,166.4,M,0.0,N,0.0,K,A*29
$GPZDA,145007.50,16,09,2022,00,00*68
!AIVDO,1,1,,B,13nGtL0000PgaPLTC;h6cF@@2<0v,0*61
!AIVDM,1,1,,A,H3m7`jPt<D4r0A8D4n0TV000000,2*70
$GPGGA,145007.50,6326.3040,N,01024.5390,E,1,12,0.7,12.3,M,41.4,M,,*55
$PSIMSNS,145009.483,,1,1,0.14,-0.52,0.00,200.55,,40,0.000,,M121*05
!AIVDM,1,1,,A,3CmJkt001H0cRHfTJovT6SD8003B,0*03
$IIMWV,105,R,3.8,M,A*2F
$GPGBS,145008.50,2.5,5.0,4.4,,,,,1,1*4E
!AIVDM,1,1,,A,1CmClB00170cE4fTJW1I078B0000,0*5A
!AIVDO,1,1,,,13nGtL0000PgaPLTC;h6cF@B2000,0*6B
$GPRMC,145008.50,A,6326.3040,N,01024.5390,E,0.0,162.6,160922,4.5,E,A,S*45
$GPVTG,162.6,T,158.1,M,0.0,N,0.0,K,A*2D
$GPZDA,145008.50,16,09,2022,00,00*67
$GPGGA,145008.50,6326.3040,N,01024.5390,E,1,12,0.7,12.3,M,41.4,M,,*5A
$VDVLW,76126.93,N,15896.57,N*50
$PSIMSNS,145010.483,,1,1,0.16,-0.52,0.00,200.55,,40,0.000,,M121*0F
!AIVDM,1,1,,A,1Co@2B0000Paec2TF2u<2m8B0000,0*42
$IIMWV,105,R,4.4,M,A*24
!AIVDM,1,1,,B,13m=18003m0gMoLTCWKmp4hD085V,0*7C
!AIVDM,1,1,,A,1Cm@d30P00PcoUrTMcm>4?vB2000,0*21
$GPGBS,145009.50,2.3,3.9,3.4,,,,,1,1*41
!AIVDO,1,1,,,13nGtL0000PgaPLTC;h6FV@D2000,0*58
$AIALR,030723.00,001,V,V,AIS: Tx malfunction*4E\r\n$AIALR,030723.00,002,V,V,AIS: Antenna VSWR exceeds limit*40
$GPRMC,145009.50,A,6326.3040,N,01024.5390,E,0.0,162.2,160922,4.5,E,A,S*40
$AIALR,030723.00,003,V,V,AIS: Rx channel 1 malfunction*18\r\n$AIALR,030723.00,004,V,V,AIS: Rx channel 2 malfunction*1C
$AIALR,030723.00,005,V,V,AIS: Rx channel 70 malfunction*28\r\n$AIALR,030723.00,008,V,V,AIS: MKD connection lost*79
$GPVTG,162.2,T,157.7,M,0.0,N,0.0,K,A*20
$AIALR,030856.00,025,V,V,AIS: external EPFS lost*32\r\n$AIALR,030723.00,026,V,V,AIS: no position sensor in use*4F
$AIALR,030723.00,029,V,V,AIS: no valid SOG information*4A\r\n$AIALR,030723.00,030,V,V,AIS: no valid COG information*52
$AIALR,030723.00,032,V,V,AIS: Heading lost/invalid*12\r\n$AIALR,030723.00,035,V,V,AIS: no valid ROT information*55
$GPZDA,145009.50,16,09,2022,00,00*66
$AIALR,082220.00,007,V,V,AIS: UTC sync invalid*1D\r\n$AIALR,030723.00,009,V,V,AIS: internal/external GNSS position mismatch*29
$AIALR,184009.00,010,A,V,AIS: NavStatus incorrect*02
$AIALR,030723.00,011,V,V,AIS: Heading sensor offset*72\r\n$AIALR,204318.00,014,V,V,AIS: active AIS-SART*63
!AIVDM,2,1,1,A,53m=1842?s7lh50:221A8tp@PDTm<H`u8B0TV20`18?444rdR554Q??U,0*11\r\n!AIVDM,2,2,1,A,PCURBhC`8888880,2*38
$GPGGA,145009.50,6326.3040,N,01024.5390,E,1,12,0.7,12.3,M,41.4,M,,*5B
!AIVDM,1,1,,A,13m?1@5000PgVTJTC=CAgTF205k8,0*44\r\n!AIVDM,1,1,,B,402MN7ivJH>j90gWgTTCDV?02D0W,0*7F
$PSIMSNS,145011.483,,1,1,0.16,-0.51,0.00,200.54,,40,0.000,,M121*0C
!AIVDM,1,1,,B,402M43AvJH>j90frsPTBHl700<1A,0*4F
!AIVDM,2,1,2,B,8Ni5n=@0Bka>DhAebHC>4?twwwwwwwwwwwwwwwwwwwwwwwwwwwwwwwww,0*3C
$VDVBW,-0.3,,A,,,V*46
$IIMWV,109,R,5.0,M,A*2D
!AIVDM,2,2,2,B,wwwh00,4*0C\r\n!AIVDM,1,1,,A,13m9Tg0Oi1PfdrRTCkmV=mND05k8,0*5D
$GPGBS,145010.50,2.0,2.9,2.5,,,,,1,1*4B
!AIVDO,1,1,,,13nGtL0000PgaPLTC;h6EV@F2000,0*59
$GPRMC,145010.50,A,6326.3040,N,01024.5390,E,0.0,177.7,160922,4.5,E,A,S*49
$GPVTG,177.7,T,173.2,M,0.0,N,0.0,K,A*22
$GPZDA,145010.50,16,09,2022,00,00*6E
$GPGGA,145010.50,6326.3040,N,01024.5390,E,1,12,0.7,12.3,M,41.4,M,,*53
$PSIMSNS,145012.483,,1,1,0.15,-0.52,0.00,200.53,,40,0.000,,M121*08
!AIVDM,1,1,,B,13m9Tb0PAKPfL?dTEbc<IqtF0D0p,0*1C
$IIMWV,111,R,5.1,M,A*25
!AIVDM,1,1,,B,1Cmhkh00030bh>FTHhrqUD`F0000,0*50
!AIVDM,1,1,,A,13m=18003m0gMt:TCVvEp4hH086k,0*34
!AIVDM,1,1,,B,3CmClB00170cE1LTJVp90o<H0000,0*12
$GPGBS,145011.50,2.1,3.9,2.9,,,,,1,1*46
!AIVDO,1,1,,,13nGtL0000PgaPLTC;h6tF@H2000,0*76
$GPRMC,145011.50,A,6326.3040,N,01024.5390,E,0.0,178.4,160922,4.5,E,A,S*44
$GPVTG,178.4,T,173.9,M,0.0,N,0.0,K,A*25
$GPZDA,145011.50,16,09,2022,00,00*6F
!AIVDM,1,1,,B,1Cn=<t001@0cTvfTM?bQ7@pF0000,0*7E
$GPGGA,145011.50,6326.3040,N,01024.5390,E,1,12,0.7,12.3,M,41.4,M,,*52
$VDVLW,76126.93,N,15896.57,N*50
$PSIMSNS,145013.483,,1,1,0.15,-0.53,0.00,200.53,,40,0.000,,M121*08
!AIVDM,1,1,,B,13m9nt0P00PgP8rTBv34awvH2<17,0*63
$IIMWV,115,R,4.8,M,A*29
!AIVDM,1,1,,A,13mEcl50000fduVTCbBHj72F0<0f,0*1B
$GPGBS,145012.50,2.4,4.4,3.5,,,,,1,1*47
!AIVDM,1,1,,A,33m9Tb0PAJPfL>RTEbgtMqtH01;@,0*23
!AIVDO,1,1,,,13nGtL0000PgaPLTC;h6v6@J2000,0*06
!AIVDM,1,1,,B,33m9Tg0Oi1PfdsJTCke6>mPH01sh,0*70
$GPRMC,145012.50,A,6326.3040,N,01024.5390,E,0.0,178.5,160922,4.5,E,A,S*46
$GPVTG,178.5,T,174.0,M,0.0,N,0.0,K,A*2A
$GPZDA,145012.50,16,09,2022,00,00*6C
$GPGGA,145012.50,6326.3040,N,01024.5390,E,1,12,0.7,12.3,M,41.4,M,,*51
$PSIMSNS,145014.483,,1,1,0.14,-0.52,0.00,200.54,,40,0.001,,M121*09
$IIMWV,111,R,4.3,M,A*26
$VDVBW,-0.3,,A,,,V*46
!AIVDM,1,1,,B,13m=18003m0gN0lTCVQ5p4hL0882,0*22
$GPGBS,145013.50,2.9,5.3,4.3,,,,,1,1*4C
!AIVDO,1,1,,,13nGtL0000PgaPLTC;h6vF@L2000,0*70
$GPRMC,145013.50,A,6326.3040,N,01024.5390,E,0.0,179.0,160922,4.5,E,A,S*43
!AIVDM,1,1,,B,B3mRN;00>`;sSE957Bm9wwVUoP06,0*09
$GPVTG,179.0,T,174.5,M,0.0,N,0.0,K,A*2B
$GPZDA,145013.50,16,09,2022,00,00*6D
$GPGGA,145013.50,6326.3040,N,01024.5390,E,1,12,0.7,12.3,M,41.4,M,,*50
$PSIMSNS,145015.483,,1,1,0.14,-0.52,0.00,200.55,,40,0.000,,M121*08
!AIVDM,1,1,,A,1CnIuF001M0b4p>TFKsj8AhJ0000,0*0F
$IIMWV,127,R,3.6,M,A*21
!AIVDM,1,1,,B,13mglo00500eeN@TDp;;;Hup0TcL,0*48
$GPGBS,145014.50,2.5,3.4,2.9,,,,,1,1*4A
!AIVDM,1,1,,A,13mHaA004l0f2MtTDShCqBvN0@8d,0*6B
!AIVDO,1,1,,,13nGtL0000PgaPLTC;h6wV@N2000,0*63
$GPRMC,145014.50,A,6326.3040,N,01024.5390,E,0.0,179.0,160922,4.5,E,A,S*44
!AIVDM,1,1,,A,1CmFun00180cEbfTJg3FmUNj0000,0*6F\r\n!AIVDM,1,1,,B,33m9Tb001IPfL<>TEbq<G9rL00T0,0*5D
$GPVTG,179.0,T,174.5,M,0.0,N,0.0,K,A*2B
$GPZDA,145014.50,16,09,2022,00,00*6A
$GPGGA,145014.50,6326.3040,N,01024.5390,E,1,12,0.7,12.3,M,41.4,M,,*57
!AIVDM,1,1,,A,3Coks:5000PaejRTF13;m@pL201j,0*11
$VDVLW,76126.93,N,15896.57,N*50
$PSIMSNS,145016.483,,1,1,0.14,-0.52,0.00,200.55,,40,0.001,,M121*0A
!AIVDM,1,1,,A,3CmClB00180cDu2TJVcq2G<N0000,0*52
$IIMWV,115,R,2.9,M,A*2E
!AIVDM,1,1,,A,13m=18003m0gN5LTCV2mpDhP0899,0*59
$GPGBS,145015.50,2.1,2.5,2.3,,,,,1,1*45
!AIVDO,1,1,,,13nGtL0000PgaPLTC;h6wV@P2000,0*7D
$GPRMC,145015.50,A,6326.3040,N,01024.5390,E,0.0,184.7,160922,4.5,E,A,S*40
$GPVTG,184.7,T,180.2,M,0.0,N,0.0,K,A*22
$GPZDA,145015.50,16,09,2022,00,00*6B
!AIVDM,1,1,,B,1Cn2pj00000cq0TTMj6hFD>P0000,0*16
!AIVDM,1,1,,A,33m9Tg0OhwPfdtVTCkPFGURN0110,0*35
$GPGGA,145015.50,6326.3040,N,01024.5390,E,1,12,0.7,12.3,M,41.4,M,,*56
$PSIMSNS,145017.483,,1,1,0.15,-0.53,0.00,200.55,,40,0.001,,M121*0B
!AIVDM,1,1,,A,13m9Tb001HPfL9lTEc1tBqrP0H9U,0*22
$IIMWV,136,R,2.2,M,A*24
!AIVDM,1,1,,A,13mv7e0000PgOcNTBtVi10:N0@9e,0*3C
!AIVDM,1,1,,A,13m7rcPOh1PgVP8TC=aBQlJN00Re,0*27
!AIVDM,1,1,,B,402LoOivJH>j@PekdrTE?0700<0H,0*53
$GPGBS,145016.50,1.7,2.3,2.1,,,,,1,1*47
$VDVBW,-0.2,,A,,,V*47
!AIVDO,1,1,,,13nGtL0000PgaPLTC;h7=n@R2000,0*0C
$GPRMC,145016.50,A,6326.3040,N,01024.5390,E,0.0,183.0,160922,4.5,E,A,S*43
!AIVDM,1,1,,B,33mU5G0P00Pgb6@TC;of4?vV0C2C,0*20
!AIVDM,1,1,,B,13mHaA004l0f2ahTDSa3q2vR05k8,0*37
$GPVTG,183.0,T,178.5,M,0.0,N,0.0,K,A*22
$GPZDA,145016.50,16,09,2022,00,00*68
$GPGGA,145016.50,6326.3040,N,01024.5390,E,1,12,0.7,12.3,M,41.4,M,,*55
$PSIMSNS,145018.483,,1,1,0.15,-0.53,0.00,200.56,,40,0.001,,M121*07
!AIVDM,1,1,,B,1CmJkt001I0cRWfTJohD43FJ0000,0*71
!AIVDM,1,1,,B,13m=18003m0gN7lTCUkmpDhT00SC,0*3E
$IIMWV,143,R,1.9,M,A*2E
$GPGBS,145017.50,1.8,2.8,2.4,,,,,1,1*47
!AIVDO,1,1,,,13nGtL0000PgaPLTC;h79V@T2000,0*36
$GPRMC,145017.50,A,6326.3040,N,01024.5390,E,0.0,171.7,160922,4.5,E,A,S*48
!AIVDO,1,1,,A,13nGtL0000PgaPLTC;h79V@T2D0v,0*45
$GPVTG,171.7,T,167.2,M,0.0,N,0.0,K,A*21
$GPZDA,145017.50,16,09,2022,00,00*69
!AIVDM,1,1,,B,E>jVERw<VRh6Rb7QRPW@1:WdP00@Gl4aB9dR010888a@20,4*12
$GPGGA,145017.50,6326.3040,N,01024.5390,E,1,12,0.7,12.3,M,41.4,M,,*54
$PSIMSNS,145019.483,,1,1,0.15,-0.53,0.00,200.56,,40,0.001,,M121*06
$VDVLW,76126.93,N,15896.57,N*50
$PFEC,idfnc,R,4*3C
!AIVDM,1,1,,B,1Co@2B0000Paec4TF2u<2m6T0000,0*5F
$IIMWV,093,R,1.7,M,A*2C
!AIVDM,1,1,,A,13ob6@0P000gKQnTBvj:e?wp2h:s,0*62
$GPGBS,145018.50,1.9,2.4,2.2,,,,,1,1*43
!AIVDM,1,1,,B,33m9Tb001GPfL7NTEc:dGItT01;P,0*5A
!AIVDO,1,1,,,13nGtL0000PgaPLTC;h6eF@V2000,0*79
$GPRMC,145018.50,A,6326.3040,N,01024.5390,E,0.0,177.0,160922,4.5,E,A,S*46
!AIVDM,1,1,,B,13m?1@5000PgVTNTC=CiblHD08;7,0*7C
$GPVTG,177.0,T,172.5,M,0.0,N,0.0,K,A*23
$GPZDA,145018.50,16,09,2022,00,00*66
$GPGGA,145018.50,6326.3040,N,01024.5390,E,1,12,0.7,12.3,M,41.4,M,,*5B
!AIVDM,1,1,,B,1CmClB0Oi80cDpVTJVOI3G@V0000,0*64
$PSIMSNS,145020.483,,1,1,0.16,-0.53,0.00,200.56,,40,0.001,,M121*0F
$IIMWV,097,R,1.8,M,A*27
!AIVDM,1,1,,A,13m=18003m0gN>lTCU7UpDh`0@;R,0*6D
$GPGBS,145019.50,2.3,2.5,2.5,,,,,1,1*4D
!AIVDO,1,1,,,13nGtL0000PgaPLTC;h6rV@`2000,0*48
$GPRMC,145019.50,A,6326.3040,N,01024.5390,E,0.0,190.2,160922,4.5,E,A,S*4C
$VDVBW,-0.2,,A,,,V*47
!AIVDM,1,1,,B,1Cm@d30P00PcoUnTMcm>4?vV2000,0*2A
$GPVTG,190.2,T,185.7,M,0.0,N,0.0,K,A*22
$GPZDA,145019.50,16,09,2022,00,00*67
$GPGGA,145019.50,6326.3040,N,01024.5390,E,1,12,0.7,12.3,M,41.4,M,,*5A
!AIVDM,1,1,,A,402MN7ivJH>jD0gWgNTCDUw02D0W,0*50
$PSIMSNS,145021.483,,1,1,0.15,-0.52,0.01,200.57,,40,0.001,,M121*0C
!AIVDM,1,1,,A,402M43AvJH>jC0frsPTBHl700<1A,0*36
!AIVDM,1,1,,A,H3nJJa099E@4hUP000000000000,2*3C
$IIMWV,108,R,1.9,M,A*21
!AIVDM,1,1,,A,1Cmhkh00030bh>JTHhrqvl``0000,0*72
!AIVDM,1,1,,A,EviD:209bW5RW@9T4`@I00000002l8T4BC3G`1088;b010,4*02
$GPGBS,145020.50,2.2,2.5,2.4,,,,,1,1*47
!AIVDM,1,1,,B,13mHaA004l0f31JTDSKSpS0b0<0d,0*16
!AIVDO,1,1,,,13nGtL0000PgaPLTC;h7KV@b2000,0*72
$GPRMC,145020.50,A,6326.3040,N,01024.5390,E,0.0,190.4,160922,4.5,E,A,S*40
$GPVTG,190.4,T,185.9,M,0.0,N,0.0,K,A*2A
$GPZDA,145020.50,16,09,2022,00,00*6D
$GPGGA,145020.50,6326.3040,N,01024.5390,E,1,12,0.7,12.3,M,41.4,M,,*50
$PSIMSNS,145022.483,,1,1,0.13,-0.52,0.01,200.56,,40,0.001,,M121*08
$VDVLW,76126.93,N,15896.57,N*50
$IIMWV,118,R,2.1,M,A*2B
!AIVDM,1,1,,A,33m9Tb001FPfL5BTEcCtN9t`0000,0*18\r\n!AIVDM,1,1,,B,13m=18003m0gNCPTCTbEpDhd08<d,0*26
$GPGBS,145021.50,2.1,2.3,2.3,,,,,1,1*44
!AIVDO,1,1,,,13nGtL0000PgaPLTC;h7L6@d2000,0*13
!AIVDM,1,1,,A,3CmClB0Oi80cDnDTJVIa57@d0000,0*03
$GPRMC,145021.50,A,6326.3040,N,01024.5390,E,0.0,216.0,160922,4.5,E,A,S*48
$GPVTG,216.0,T,211.6,M,0.0,N,0.0,K,A*22
$GPZDA,145021.50,16,09,2022,00,00*6C
$GPGGA,145021.50,6326.3040,N,01024.5390,E,1,12,0.7,12.3,M,41.4,M,,*51
$PSIMSNS,145023.484,,1,1,0.12,-0.53,0.01,200.55,,40,0.001,,M121*0D
!AIVDM,1,1,,A,13m9nt0P00PgP8rTBv34GOvd2<17,0*52
$IIMWV,135,R,2.4,M,A*21
!AIVDM,2,1,3,A,8>jVEUP0GhBCp1kFl24<1hNJkD05L0?=P1u600000000000@Sd000000,0*24
$GPGBS,145022.50,2.1,3.2,3.0,,,,,1,1*45
!AIVDM,2,2,3,A,p00,2*67\r\n!AIVDM,1,1,,A,H3nJJa4R@B?>1F0<6lkii0184220,0*40
!AIVDO,1,1,,,13nGtL0000PgaPLTC;h8L6@f2000,0*1E
$GPRMC,145022.50,A,6326.3040,N,01024.5390,E,0.0,198.7,160922,4.5,E,A,S*49
$GPVTG,198.7,T,194.2,M,0.0,N,0.0,K,A*2A
$GPZDA,145022.50,16,09,2022,00,00*6F
$VDVBW,-0.2,,A,,,V*47
!AIVDM,1,1,,A,33m9Tg0OhuPfdw4TCk3FLEVd01s@,0*32
$GPGGA,145022.50,6326.3040,N,01024.5390,E,1,12,0.7,12.3,M,41.4,M,,*52
!AIVDM,1,1,,B,13m9Tb001EPfL34TEcLdFatd00Rg,0*14
$PSIMSNS,145024.484,,1,1,0.11,-0.53,0.01,200.53,,40,0.001,,M121*0F
!AIVDM,1,1,,A,13m=18003m0gNElTCTKUpDhh0L10,0*07
!AIVDM,1,1,,B,1CmwBD0Oh@0aV:hTIGLQui>b0000,0*4E
!AIVDM,1,1,,A,ENi5n=@c4W2?b2ab?Q92Uab0R000F94wB>7Wh00000v010,4*66
$IIMWV,127,R,2.5,M,A*23
$GPGBS,145023.50,1.8,3.2,2.4,,,,,1,1*4B
!AIVDO,1,1,,,13nGtL0000PgaPLTC;h7hn@h2000,0*63
$GPRMC,145023.50,A,6326.3040,N,01024.5390,E,0.0,181.3,160922,4.5,E,A,S*44
$GPVTG,181.3,T,176.8,M,0.0,N,0.0,K,A*20
$GPZDA,145023.50,16,09,2022,00,00*6E
$GPGGA,145023.50,6326.3040,N,01024.5390,E,1,12,0.7,12.3,M,41.4,M,,*53
$VDVLW,76126.93,N,15896.57,N*50
$PSIMSNS,145025.485,,1,1,0.12,-0.53,0.00,200.52,,40,0.001,,M121*0C
$IIMWV,096,R,2.4,M,A*29
!AIVDM,1,1,,A,13mEcl50000fdulTCbB8j72f05k8,0*7D
$GPGBS,145024.50,1.7,3.6,2.5,,,,,1,1*46
!AIVDM,1,1,,B,EviD:1h9bW5RW@9T4`0000000002l8T4BBap01088;cP10,4*06
!AIVDO,1,1,,,13nGtL0000PgaPLTC;h75F@j2000,0*14
!AIVDM,1,1,,B,13mHaA004l0f3I4TDS=Cpk0j00S7,0*7A
$GPRMC,145024.50,A,6326.3040,N,01024.5390,E,0.0,181.3,160922,4.5,E,A,S*43
$GPVTG,181.3,T,176.8,M,0.0,N,0.0,K,A*20
$GPZDA,145024.50,16,09,2022,00,00*69
$GPGGA,145024.50,6326.3040,N,01024.5390,E,1,12,0.7,12.3,M,41.4,M,,*54
!AIVDM,1,1,,B,3CmClB00180cDijTJV=a7G@j0000,0*06
!AIVDM,1,1,,A,1Cn2pj00000cq0bTMj9PFD>j0000,0*2E
$PSIMSNS,145026.487,,1,1,0.15,-0.53,0.00,200.51,,40,0.001,,M121*09
$IIMWV,084,R,2.0,M,A*2E
!AIVDM,1,1,,B,13m=18003m0gNLrTCSgEp4hl08>v,0*61
!AIVDM,1,1,,B,1CmFun00180cEd<TJfB6hUQ60000,0*76
!AIVDM,1,1,,B,B3mO3K0000;rOaa4jp`JgwdUkP06,0*10
$GPGBS,145025.50,2.1,3.4,2.3,,,,,1,1*46
!AIVDO,1,1,,,13nGtL0000PgaPLTC;h75F@l2000,0*12
$GPRMC,145025.50,A,6326.3040,N,01024.5390,E,0.0,165.7,160922,4.5,E,A,S*4C
$GPVTG,165.7,T,161.2,M,0.0,N,0.0,K,A*22
$GPZDA,145025.50,16,09,2022,00,00*68
!AIVDM,1,1,,B,33m9Tg0OhtPfdwvTCjo6L5`j00wP,0*02
$VDVBW,-0.2,,A,,,V*47
$GPGGA,145025.50,6326.3040,N,01024.5390,E,1,12,0.7,12.3,M,41.4,M,,*55
!AIVDM,1,1,,A,B3mwM@000@;qbf94k=P03wdTCP06,0*24
$PSIMSNS,145027.494,,1,1,0.17,-0.53,0.00,200.49,,40,0.001,,M121*01
!AIVDM,1,1,,B,33mv7e0000PgOcbTBtWA108j0623,0*35
$IIMWV,059,R,1.5,M,A*28
!AIVDM,1,1,,B,13mglo004v0edFnTDqAc9`up0`?R,0*57
!AIVDM,1,1,,A,402LoOivJH>jJPekdrTE?0700<0H,0*5A
$GPGBS,145026.50,3.2,4.4,3.0,,,,,1,1*42
!AIVDO,1,1,,,13nGtL0000PgaPLTC;h6NF@n2000,0*6A
$GPRMC,145026.50,A,6326.3040,N,01024.5390,E,0.0,181.9,160922,4.5,E,A,S*4B
$GPVTG,181.9,T,177.4,M,0.0,N,0.0,K,A*27
!AIVDM,1,1,,B,33m9Tb001DPfKvNTEceLF9tl0000,0*4B\r\n!AIVDM,1,1,,B,13m7rcP000PgVP8TC=atdTLj00Rc,0*1D
$GPZDA,145026.50,16,09,2022,00,00*6B
!AIVDM,1,1,,B,13ob6@0P000gKQJTBvibewwp2`?r,0*5A
$GPGGA,145026.50,6326.3040,N,01024.5390,E,1,12,0.7,12.3,M,41.4,M,,*56
$VDVLW,76126.93,N,15896.57,N*50
$PSIMSNS,145028.495,,1,1,0.18,-0.53,0.00,200.49,,40,0.001,,M121*00
!AIVDM,1,1,,A,13mU5G0P00Pgb6@TC;of4?vt0@Aj,0*5A
$IIMWV,077,R,1.5,M,A*24
!AIVDM,1,1,,A,13m=18003m0gNQbTCSB5olfp08@:,0*5D
$GPGBS,145027.50,2.9,3.6,2.5,,,,,1,1*48
!AIVDO,1,1,,,13nGtL0000PgaPLTC;h76n@p2000,0*25
!AIVDM,1,1,,A,1CmClB00190cDgPTJV7a7WBp0000,0*30
$GPRMC,145027.50,A,6326.3040,N,01024.5390,E,0.0,181.9,160922,4.5,E,A,S*4A
$GPVTG,181.9,T,177.5,M,0.0,N,0.0,K,A*26
$GPZDA,145027.50,16,09,2022,00,00*6A
$GPGGA,145027.50,6326.3040,N,01024.5390,E,1,12,0.7,12.3,M,41.4,M,,*57
$PSIMSNS,145029.497,,1,1,0.18,-0.53,0.00,200.50,,40,0.001,,M121*0B
!AIVDO,1,1,,B,13nGtL0000PgaPLTC;h76n@r2@@b,0*37
!AIVDM,1,1,,A,13m9Tb001CPfKtBTEcn<KItp05k8,0*0F
$IIMWV,086,R,2.1,M,A*2D
$GPGBS,145028.50,2.7,3.9,2.6,,,,,1,1*45
!AIVDM,1,1,,B,13mHaA004m0f3hhTDRw3pS0r05k8,0*2F
!AIVDO,1,1,,,13nGtL0000PgaPLTC;h76n@r2000,0*27
$GPRMC,145028.50,A,6326.3040,N,01024.5390,E,0.0,181.1,160922,4.5,E,A,S*4D
$GPVTG,181.1,T,176.6,M,0.0,N,0.0,K,A*2C
!AIVDM,1,1,,A,13m9Tg0OhsPfe0pTCjc6LEbp00S6,0*62
$GPZDA,145028.50,16,09,2022,00,00*65
!AIVDM,1,1,,A,1CmJkt001I0cRshTJoL46SFj0000,0*4E
$GPGGA,145028.50,6326.3040,N,01024.5390,E,1,12,0.7,12.3,M,41.4,M,,*58
$PSIMSNS,145030.497,,1,1,0.18,-0.53,0.00,200.51,,40,0.001,,M121*02
$VDVBW,-0.2,,A,,,V*47
$IIMWV,072,R,2.8,M,A*2F
!AIVDM,1,1,,A,1Co@2B0000Paec8TF2u<2m6r0000,0*76
!AIVDM,1,1,,B,13m=18003m0gNVJTCRlmoTft0<10,0*45
!AIVDM,2,1,4,B,5Coks:81oJ44hUEH000HTLQ@E80000000000001;1@k386Fo08lhCQ4m,0*7A
!AIVDM,2,2,4,B,0A0000000000000,2*52
$GPGBS,145029.50,2.6,3.8,2.7,,,,,1,1*45
!AIVDO,1,1,,,13nGtL0000PgaPLTC;h74n@t2000,0*23
$GPRMC,145029.50,A,6326.3040,N,01024.5390,E,0.0,170.1,160922,4.5,E,A,S*42
$GPVTG,170.1,T,165.7,M,0.0,N,0.0,K,A*21
$GPZDA,145029.50,16,09,2022,00,00*64
!AIVDM,1,1,,B,3Cmhkh00030bh>LTHhrab4bt0000,0*3F
$GPGGA,145029.50,6326.3040,N,01024.5390,E,1,12,0.7,12.3,M,41.4,M,,*59
$VDVLW,76126.93,N,15896.57,N*50
!AIVDM,1,1,,B,402MN7ivJH>jM0gWgJTCDUw02D0W,0*5E
$PSIMSNS,145031.497,,1,1,0.16,-0.52,0.00,200.52,,40,0.001,,M121*0F
!AIVDM,1,1,,B,402M43AvJH>jM0frsPTBHl700<1A,0*3B
$IIMWV,074,R,3.4,M,A*24
!AIVDM,1,1,,A,13m?1@5000PgVTTTC=CifTFb05k8,0*23
$GPGBS,145030.50,3.8,4.6,3.3,,,,,1,1*4E
!AIVDO,1,1,,,13nGtL0000PgaPLTC;h6aF@v2000,0*5D
$GPRMC,145030.50,A,6326.3040,N,01024.5390,E,0.0,169.9,160922,4.5,E,A,S*4A
$GPVTG,169.9,T,165.4,M,0.0,N,0.0,K,A*22
$GPZDA,145030.50,16,09,2022,00,00*6C
$GPGGA,145030.50,6326.3040,N,01024.5390,E,1,12,0.7,12.3,M,41.4,M,,*51
!AIVDM,1,1,,A,H3n:s00tHHhTpD0000000000000,2*34
$PSIMSNS,145032.498,,1,1,0.15,-0.52,0.00,200.52,,40,0.001,,M121*00
$IIMWV,070,R,3.0,M,A*24
!AIVDM,1,1,,A,13m=18003m0gNc>TCRGUo4g005k8,0*6A
$GPGBS,145031.50,4.2,5.3,3.9,,,,,1,1*4C
!AIVDM,2,1,5,B,53ot6V02?49`h=4b220e8U=@T4r1LU@R22222216:0:775f70<U4SkQ2,0*35
!AIVDM,2,2,5,B,1BCH88888888880,2*5A
!AIVDO,1,1,,,13nGtL0000PgaPLTC;h6`nA02000,0*33
$GPRMC,145031.50,A,6326.3040,N,01024.5390,E,0.0,173.6,160922,4.5,E,A,S*4F
!AIVDM,2,1,6,A,5Cn2pj42D;DLheDJ220eH4ppuV2222222222220N8`C5;5uoNCPj8<M`,0*01
!AIVDM,2,2,6,A,1Sl`2CQSp888880,2*77
$GPVTG,173.6,T,169.2,M,0.0,N,0.0,K,A*2C
$GPZDA,145031.50,16,09,2022,00,00*6D
$GPGGA,145031.50,6326.3040,N,01024.5390,E,1,12,0.7,12.3,M,41.4,M,,*50
$PSIMSNS,145033.500,,1,1,0.14,-0.52,0.00,200.51,,40,0.001,,M121*03
!AIVDM,1,1,,A,H3nJ771@5HE8r3<000000000000,2*77
$IIMWV,097,R,2.6,M,A*2A
$VDVBW,-0.3,,A,,,V*46
!AIVDM,1,1,,B,13m9nt0P00PgP8VTBv34i?w02@C:,0*7D
$GPGBS,145032.50,5.4,5.5,3.4,,,,,1,1*43
!AIVDO,1,1,,,13nGtL0000PgaPLTC;h6j6A22000,0*63
!AIVDM,1,1,,B,33m9Tg0OhrPfe1tTCjK6Q5c001u@,0*32
$GPRMC,145032.50,A,6326.3040,N,01024.5390,E,0.0,178.7,160922,4.5,E,A,S*46
$GPVTG,178.7,T,174.2,M,0.0,N,0.0,K,A*2A
$GPZDA,145032.50,16,09,2022,00,00*6E
$GPGGA,145032.50,6326.3040,N,01024.5390,E,1,12,0.7,12.3,M,41.4,M,,*53
$VDVLW,76126.93,N,15896.57,N*50
$PSIMSNS,145034.500,,1,1,0.13,-0.52,0.00,200.50,,40,0.001,,M121*02
!AIVDM,1,1,,B,13m=18003m0gNe`TCR95nlg408CV,0*39
$IIMWV,094,R,2.1,M,A*2E
$GPGBS,145033.50,2.9,3.4,2.9,,,,,1,1*43
!AIVDO,1,1,,,13nGtL0000PgaPLTC;h6vnA42000,0*21
$GPRMC,145033.50,A,6326.3040,N,01024.5390,E,0.0,184.3,160922,4.5,E,A,S*40
$GPVTG,184.3,T,179.9,M,0.0,N,0.0,K,A*2B
$GPZDA,145033.50,16,09,2022,00,00*6F
$GPGGA,145033.50,6326.3040,N,01024.5390,E,1,12,0.7,12.3,M,41.4,M,,*52
!AIVDM,1,1,,B,13m9Tb001@PfKnjTEd:dHau200SC,0*18
$PFEC,idfnc,R,4*3C
$PSIMSNS,145035.501,,1,1,0.13,-0.53,0.00,200.49,,40,0.001,,M121*0B
$IIMWV,148,R,1.9,M,A*25
!AIVDM,1,1,,A,3CnIuF001M0b5EjTFM6B81i2002j,0*57
$GPGBS,145034.50,2.8,3.7,3.1,,,,,1,1*4F
!AIVDO,1,1,,,13nGtL0000PgaPLTC;h7<nA62000,0*68
$GPRMC,145034.50,A,6326.3040,N,01024.5390,E,0.0,182.7,160922,4.5,E,A,S*45
$GPVTG,182.7,T,178.2,M,0.0,N,0.0,K,A*23
!AIVDM,1,1,,A,1CmFun00170cEedTJeQ6hUSJ0000,0*4D
$GPZDA,145034.50,16,09,2022,00,00*68
!AIVDM,1,1,,A,B3n8WiP000;omT94gVh03wi5kP06,0*73
$GPGGA,145034.50,6326.3040,N,01024.5390,E,1,12,0.7,12.3,M,41.4,M,,*55
$PSIMSNS,145036.503,,1,1,0.14,-0.53,0.00,200.49,,40,0.001,,M121*0D
!AIVDM,1,1,,A,13mv7e0000PgOcPTBtWi10940D0r,0*40
$IIMWV,123,R,2.0,M,A*22
!AIVDM,1,1,,A,B3n:42P008<1H;a4jKv:cwiUoP06,0*3A
!AIVDM,1,1,,A,13m=18003m0gNlnTCQLmnTg80@Dp,0*7E
$VDVBW,-0.3,,A,,,V*46
$GPGBS,145035.50,2.8,3.6,3.2,,,,,1,1*4C
!AIVDO,1,1,,,13nGtL0000PgaPLTC;h78nA82000,0*62
$GPRMC,145035.50,A,6326.3040,N,01024.5390,E,0.0,182.6,160922,4.5,E,A,S*45
$GPVTG,182.6,T,178.2,M,0.0,N,0.0,K,A*22
$GPZDA,145035.50,16,09,2022,00,00*69
$GPGGA,145035.50,6326.3040,N,01024.5390,E,1,12,0.7,12.3,M,41.4,M,,*54
!AIVDM,1,1,,A,33m9Tg0OhpPfe2fTCj?VQEe600w0,0*35
$VDVLW,76126.93,N,15896.57,N*50
$PSIMSNS,145037.503,,1,1,0.13,-0.52,0.00,200.49,,40,0.001,,M121*0A
!AIVDM,1,1,,B,1Cn2pj00000cq0vTMj<@FD?80000,0*7F
$IIMWV,110,R,2.5,M,A*27
!AIVDM,1,1,,B,402LoOivJH>jSPekdrTE?0700<0H,0*40
$GPGBS,145036.50,2.1,2.2,2.2,,,,,1,1*42
!AIVDM,1,1,,A,13m7rcP001PgVP<TC=abUlM60<0C,0*17\r\n!AIVDM,1,1,,B,13mHaA0PDm0f4P4TDRS3oju:0@ER,0*62
!AIVDO,1,1,,,13nGtL0000PgaPLTC;h78VA:2000,0*58
$GPRMC,145036.50,A,6326.3040,N,01024.5390,E,0.0,194.7,160922,4.5,E,A,S*40
$GPVTG,194.7,T,190.2,M,0.0,N,0.0,K,A*22
$GPZDA,145036.50,16,09,2022,00,00*6A
!AIVDM,1,1,,A,13mEcl50000fdulTCbB8j7360@Ej,0*25
$GPGGA,145036.50,6326.3040,N,01024.5390,E,1,12,0.7,12.3,M,41.4,M,,*57
$PSIMSNS,145038.504,,1,1,0.13,-0.52,0.00,200.50,,40,0.001,,M121*0A
!AIVDM,1,1,,B,13mU5G0P01Pgb6@TC;oP0?w@0HGa,0*5A
$IIMWV,134,R,3.0,M,A*25
!AIVDM,1,1,,B,13m=18003m0gNqVTCPwEnlg<08F4,0*48
$GPGBS,145037.50,2.4,2.5,2.2,,,,,1,1*41
!AIVDO,1,1,,,13nGtL0000PgaPLTC;h7VnA<2000,0*08
$GPRMC,145037.50,A,6326.3040,N,01024.5390,E,0.0,195.1,160922,4.5,E,A,S*46
!AIVDO,1,1,,A,13nGtL0000PgaPLTC;h7VnA<2L0u,0*70
$GPVTG,195.1,T,190.6,M,0.0,N,0.0,K,A*21
$GPZDA,145037.50,16,09,2022,00,00*6B
$GPGGA,145037.50,6326.3040,N,01024.5390,E,1,12,0.7,12.3,M,41.4,M,,*56
!AIVDM,1,1,,A,13ob6@0P000gKQHTBvj:dgwp2`FJ,0*50
$PSIMSNS,145039.505,,1,1,0.12,-0.52,0.00,200.49,,40,0.001,,M121*03
$IIMWV,144,R,3.2,M,A*20
$GPGBS,145038.50,2.8,2.5,2.2,,,,,1,1*42
$VDVBW,-0.3,,A,,,V*46
!AIVDO,1,1,,,13nGtL0000PgaPLTC;h7WnA>2000,0*0B
$GPRMC,145038.50,A,6326.3040,N,01024.5390,E,0.0,189.3,160922,4.5,E,A,S*46
$GPVTG,189.3,T,184.8,M,0.0,N,0.0,K,A*25
$GPZDA,145038.50,16,09,2022,00,00*64
!AIVDM,1,1,,B,13m?1@5000PgVTTTC=Cse4Ft0HFq,0*56
$GPGGA,145038.50,6326.3040,N,01024.5390,E,1,12,0.7,12.3,M,41.4,M,,*59
!AIVDM,1,1,,B,1Co@2B0000Paec>TF2u<2m7>0000,0*3E
$VDVLW,76126.93,N,15896.57,N*50
$PSIMSNS,145040.506,,1,1,0.12,-0.52,-0.01,200.49,,40,0.001,,M121*22
$IIMWV,141,R,3.0,M,A*27
!AIVDM,1,1,,A,13m=18003m0gNvJTCPR5nli@0HG=,0*0F
$GPGBS,145039.50,2.7,2.6,1.7,,,,,1,1*49
!AIVDO,1,1,,,13nGtL0000PgaPLTC;h7IFA@2000,0*43
$AIALR,030723.00,001,V,V,AIS: Tx malfunction*4E\r\n$AIALR,030723.00,002,V,V,AIS: Antenna VSWR exceeds limit*40
$GPRMC,145039.50,A,6326.3040,N,01024.5390,E,0.0,208.0,160922,4.5,E,A,S*4E
$AIALR,030723.00,003,V,V,AIS: Rx channel 1 malfunction*18\r\n$AIALR,030723.00,004,V,V,AIS: Rx channel 2 malfunction*1C
$AIALR,030723.00,005,V,V,AIS: Rx channel 70 malfunction*28\r\n$AIALR,030723.00,008,V,V,AIS: MKD connection lost*79
$AIALR,030856.00,025,V,V,AIS: external EPFS lost*32\r\n$AIALR,030723.00,026,V,V,AIS: no position sensor in use*4F
$GPVTG,208.0,T,203.6,M,0.0,N,0.0,K,A*2E
$AIALR,030723.00,029,V,V,AIS: no valid SOG information*4A\r\n$AIALR,030723.00,030,V,V,AIS: no valid COG information*52
$AIALR,030723.00,032,V,V,AIS: Heading lost/invalid*12\r\n$AIALR,030723.00,035,V,V,AIS: no valid ROT information*55
$GPZDA,145039.50,16,09,2022,00,00*65
$AIALR,082220.00,007,V,V,AIS: UTC sync invalid*1D\r\n$AIALR,030723.00,009,V,V,AIS: internal/external GNSS position mismatch*29
$AIALR,184009.00,010,A,V,AIS: NavStatus incorrect*02
$AIALR,030723.00,011,V,V,AIS: Heading sensor offset*72\r\n$AIALR,204318.00,014,V,V,AIS: active AIS-SART*63
$GPGGA,145039.50,6326.3040,N,01024.5390,E,1,12,0.7,12.3,M,41.4,M,,*58
!AIVDM,1,1,,A,402MN7ivJH>jW0gWgDTCDUg02D0W,0*59
$PSIMSNS,145041.507,,1,1,0.16,-0.52,-0.01,200.48,,40,0.000,,M121*26
!AIVDM,1,1,,A,402M43AvJH>jW0frsPTBHl700<1A,0*22
!AIVDM,1,1,,A,1Cmhkh00020bh>@THhs9NlcB0000,0*29
!AIVDM,1,1,,B,13m9Tg0OhoPfe3nTCitVWUg@08Gf,0*66
$IIMWV,120,R,3.0,M,A*20
!AIVDM,1,1,,B,13mHaA0Olm0f4olTDRF3o2wB0@Gn,0*3B
$GPGBS,145040.50,2.7,2.5,1.7,,,,,1,1*44
!AIVDO,1,1,,,13nGtL0000PgaPLTC;h886AB2000,0*4F
$GPRMC,145040.50,A,6326.3040,N,01024.5390,E,0.0,197.0,160922,4.5,E,A,S*45
$GPVTG,197.0,T,192.5,M,0.0,N,0.0,K,A*23
$GPZDA,145040.50,16,09,2022,00,00*6B
!AIVDM,1,1,,A,13m9Tb001<PfKgJTEdUtE9s@0D0p,0*34
$GPGGA,145040.50,6326.3040,N,01024.5390,E,1,12,0.7,12.3,M,41.4,M,,*56
$PSIMSNS,145042.508,,1,1,0.17,-0.52,-0.01,200.48,,40,0.001,,M121*2A
!AIVDM,1,1,,A,1Cn=<t001@0cUDrTMAnA8hq@0000,0*18
$IIMWV,115,R,3.0,M,A*26
!AIVDM,1,1,,B,13m=180Okm0gO36TCP4Uo4iD08HF,0*4C
!AIVDM,1,1,,A,H3n:s04TCD36<95<9mqmq01`1140,0*78
$GPGBS,145041.50,2.7,2.5,1.6,,,,,1,1*44
!AIVDO,1,1,,,13nGtL0000PgaPLTC;h7dVAD2000,0*7A
$GPRMC,145041.50,A,6326.3040,N,01024.5390,E,0.0,196.6,160922,4.5,E,A,S*43
!AIVDM,1,1,,A,13m9nt0P00PgP8dTBv34M?wB2D17,0*61
$VDVBW,-0.3,,A,,,V*46
$GPVTG,196.6,T,192.1,M,0.0,N,0.0,K,A*20
$GPZDA,145041.50,16,09,2022,00,00*6A
$GPGGA,145041.50,6326.3040,N,01024.5390,E,1,12,0.7,12.3,M,41.4,M,,*57
$VDVLW,76126.93,N,15896.57,N*50
$PSIMSNS,145043.508,,1,1,0.16,-0.52,-0.01,200.48,,40,0.001,,M121*2A
$IIMWV,110,R,3.3,M,A*20
$GPGBS,145042.50,3.2,3.1,1.8,,,,,1,1*48
!AIVDM,1,1,,A,B3m7`jP3wk?8mP=18D3Q3wwQjll:,0*62
!AIVDO,1,1,,,13nGtL0000PgaPLTC;h7cVAF2000,0*7F
$GPRMC,145042.50,A,6326.3040,N,01024.5390,E,0.0,190.5,160922,4.5,E,A,S*45
!AIVDM,1,1,,B,1CmwBD0OhB0aV@jTIGaj:Ae@0000,0*3C
$GPVTG,190.5,T,186.0,M,0.0,N,0.0,K,A*21
$GPZDA,145042.50,16,09,2022,00,00*69
$GPGGA,145042.50,6326.3040,N,01024.5390,E,1,12,0.7,12.3,M,41.4,M,,*54
$PSIMSNS,145044.513,,1,1,0.16,-0.53,-0.01,200.47,,40,0.001,,M121*29
!AIVDM,1,1,,A,13m=180Okm0gO5LTCOmmoTkH0<0w,0*6E
!AIVDM,1,1,,A,B3mRN;00>H;s`h956u9OowmUoP06,0*0B
$IIMWV,112,R,3.3,M,A*22
$GPGBS,145043.50,2.7,2.6,1.9,,,,,1,1*4A
!AIVDO,1,1,,,13nGtL0000PgaPLTC;h7LFAH2000,0*4E
$GPRMC,145043.50,A,6326.3040,N,01024.5390,E,0.0,190.3,160922,4.5,E,A,S*42
$GPVTG,190.3,T,185.8,M,0.0,N,0.0,K,A*2C
$GPZDA,145043.50,16,09,2022,00,00*68
$GPGGA,145043.50,6326.3040,N,01024.5390,E,1,12,0.7,12.3,M,41.4,M,,*55
$PSIMSNS,145045.515,,1,1,0.15,-0.52,-0.01,200.46,,40,0.001,,M121*2D
$IIMWV,134,R,3.4,M,A*21
$GPGBS,145044.50,2.1,2.4,2.0,,,,,1,1*43
!AIVDO,1,1,,,13nGtL0000PgaPLTC;h7KnAJ2000,0*63
$GPRMC,145044.50,A,6326.3040,N,01024.5390,E,0.0,176.6,160922,4.5,E,A,S*48
!AIVDM,1,1,,B,1CmFun00160cEftTJdhVk5Sf0000,0*4B
$GPVTG,176.6,T,172.1,M,0.0,N,0.0,K,A*20
!AIVDM,1,1,,A,1Cn2pj00000cq12TMj;PFD?J0000,0*5C
$GPZDA,145044.50,16,09,2022,00,00*6F
$VDVBW,-0.3,,A,,,V*46
$GPGGA,145044.50,6326.3040,N,01024.5390,E,1,12,0.7,12.3,M,41.4,M,,*52
$PSIMSNS,145046.516,,1,1,0.15,-0.52,-0.01,200.47,,40,0.001,,M121*2C
!AIVDM,1,1,,B,13m=18003m0gO:4TCOH5pDiL0<0w,0*49
$VDVLW,76126.93,N,15896.57,N*50
$IIMWV,118,R,3.0,M,A*2B
!AIVDM,1,1,,B,13mv7e0000PgOcHTBtVi10;H0<0r,0*5C
$GPGBS,145045.50,2.9,3.4,2.7,,,,,1,1*4C
!AIVDO,1,1,,,13nGtL0000PgaPLTC;h6qVAL2000,0*66
$GPRMC,145045.50,A,6326.3040,N,01024.5390,E,0.0,176.7,160922,4.5,E,A,S*48
$GPVTG,176.7,T,172.2,M,0.0,N,0.0,K,A*22
$GPZDA,145045.50,16,09,2022,00,00*6E
$GPGGA,145045.50,6326.3040,N,01024.5390,E,1,12,0.7,12.3,M,41.4,M,,*53
!AIVDM,1,1,,B,33m9Tg0OhmPfe4nTCian`EiJ0000,0*46
$PSIMSNS,145047.518,,1,1,0.15,-0.52,-0.01,200.47,,40,0.001,,M121*23
!AIVDM,1,1,,A,13mU5G0P01Pgb6@TC;oP0?wR08Ls,0*22
$IIMWV,092,R,2.7,M,A*2E
!AIVDM,1,1,,A,402LoOivJH>jePekdrTE?0700<0I,0*74
$GPGBS,145046.50,2.7,3.3,2.9,,,,,1,1*48
!AIVDO,1,1,,,13nGtL0000PgaPLTC;h6qnAN2000,0*5C
$GPRMC,145046.50,A,6326.3040,N,01024.5390,E,0.0,177.9,160922,4.5,E,A,S*44
!AIVDO,1,1,,B,13nGtL0000PgaPLTC;h6qnAN2HKR,0*7F
$GPVTG,177.9,T,173.4,M,0.0,N,0.0,K,A*2A
$GPZDA,145046.50,16,09,2022,00,00*6D
!AIVDM,1,1,,B,13m7rcP000PgVP>TC=aPOlKJ00Rc,0*0B
$GPGGA,145046.50,6326.3040,N,01024.5390,E,1,12,0.7,12.3,M,41.4,M,,*50
$PSIMSNS,145048.519,,1,1,0.14,-0.52,-0.01,200.47,,40,0.001,,M121*2C
!AIVDM,1,1,,A,13m=18003m0gO>dTCNr5pTiP0L0w,0*59
$IIMWV,119,R,2.7,M,A*2C
!AIVDM,1,1,,A,1CmJkt001I0cSIjTJnw443GF0000,0*02
!AIVDM,1,1,,B,33mv7e0Oh1PgOcJTBtW110;L00pP,0*49
!AIVDM,1,1,,B,13ob6@0P000gKQ`TBvhJW?wp2l1;,0*68
$GPGBS,145047.50,2.7,2.9,2.3,,,,,1,1*48
!AIVDM,1,1,,A,33mv7e0Oh0PgOcJTBtW110;L008h,0*3B
!AIVDM,1,1,,A,BCm8qfP008:v1Q97JVgQ3woPs000,0*3D
!AIVDO,1,1,,,13nGtL0000PgaPLTC;h6tnAP2000,0*47
$GPRMC,145047.50,A,6326.3040,N,01024.5390,E,0.0,178.0,160922,4.5,E,A,S*43
$GPVTG,178.0,T,173.5,M,0.0,N,0.0,K,A*2D
$GPZDA,145047.50,16,09,2022,00,00*6C
$GPGGA,145047.50,6326.3040,N,01024.5390,E,1,12,0.7,12.3,M,41.4,M,,*51
!AIVDM,1,1,,A,1CmClB00190cDGBTJU:q<WGP0000,0*32
$VDVLW,76126.93,N,15896.57,N*50
$PSIMSNS,145049.520,,1,1,0.14,-0.52,-0.01,200.48,,40,0.001,,M121*28
$VDVBW,-0.2,,A,,,V*47
$IIMWV,083,R,3.1,M,A*29
!AIVDM,1,1,,A,33mv7e0Oh0PgOcNTBtWA10=N01s@,0*29
$GPGBS,145048.50,2.6,3.4,2.2,,,,,1,1*4B
!AIVDO,1,1,,,13nGtL0000PgaPLTC;h6u6AR2000,0*1C
$GPRMC,145048.50,A,6326.3040,N,01024.5390,E,0.0,178.7,160922,4.5,E,A,S*4B
$GPVTG,178.7,T,174.2,M,0.0,N,0.0,K,A*2A
$GPZDA,145048.50,16,09,2022,00,00*63
$GPGGA,145048.50,6326.3040,N,01024.5390,E,1,12,0.7,12.3,M,41.4,M,,*5E
!AIVDM,1,1,,A,13mEcl50000fdv4TCb@pj73N00Rw,0*36
!AIVDM,1,1,,A,33m?1@5000PgVTVTC=D4TDG@01w3,0*6B
$PSIMSNS,145050.521,,1,1,0.16,-0.52,-0.01,200.49,,40,0.001,,M121*22
!AIVDM,1,1,,B,13m=18003m0gOCDTCNLUpTiT00S<,0*09
$IIMWV,098,R,3.5,M,A*27
!AIVDM,1,1,,A,1Cm@d30P01PcoUnTMco>4?wP2000,0*2D
$GPGBS,145049.50,2.4,2.7,1.9,,,,,1,1*42
!AIVDO,1,1,,,13nGtL0000PgaPLTC;h6vnAT2000,0*41
$GPRMC,145049.50,A,6326.3040,N,01024.5390,E,0.0,168.5,160922,4.5,E,A,S*49
$GPVTG,168.5,T,164.0,M,0.0,N,0.0,K,A*2A
!AIVDM,1,1,,A,13m9Tg0OhmPfe5TTCiKFbEkR00SB,0*77
$GPZDA,145049.50,16,09,2022,00,00*62
$GPGGA,145049.50,6326.3040,N,01024.5390,E,1,12,0.7,12.3,M,41.4,M,,*5F
!AIVDM,1,1,,B,402MN7ivJH>ji0gWg<TCDUO02D0W,0*34
$PFEC,idfnc,R,4*3C
$PSIMSNS,145051.527,,1,1,0.16,-0.52,-0.01,200.49,,40,0.001,,M121*25
!AIVDM,1,1,,B,402M43AvJH>ji0frsPTBHl700<1A,0*1F
$IIMWV,054,R,3.4,M,A*26
!AIVDM,1,1,,A,EviD:1h9bW5RW@9T4`0000000002l8T4BBap01088;pP10,4*16
$GPGBS,145050.50,1.8,2.1,1.8,,,,,1,1*42
!AIVDM,1,1,,B,1Cmhkh00040bh>DTHhs9jDcV0000,0*30
!AIVDO,1,1,,,13nGtL0000PgaPLTC;h6UFAV2000,0*48
$GPRMC,145050.50,A,6326.3040,N,01024.5390,E,0.0,171.9,160922,4.5,E,A,S*45
$GPVTG,171.9,T,167.4,M,0.0,N,0.0,K,A*29
$GPZDA,145050.50,16,09,2022,00,00*6A
$GPGGA,145050.50,6326.3040,N,01024.5390,E,1,12,0.7,12.3,M,41.4,M,,*57
$VDVLW,76126.93,N,15896.57,N*50
$PSIMSNS,145052.528,,1,1,0.15,-0.52,-0.01,200.49,,40,0.001,,M121*2A
$VDVBW,-0.3,,A,,,V*46
$IIMWV,056,R,3.1,M,A*21
!AIVDM,1,1,,A,13m=18003m0gOJFTCMh5pDi`0<0w,0*46
$GPGBS,145051.50,2.4,2.4,2.8,,,,,1,1*4A
!AIVDO,1,1,,,13nGtL0000PgaPLTC;h6enA`2000,0*66
$GPRMC,145051.50,A,6326.3040,N,01024.5390,E,0.0,172.0,160922,4.5,E,A,S*4E
$GPVTG,172.0,T,167.5,M,0.0,N,0.0,K,A*22
$GPZDA,145051.50,16,09,2022,00,00*6B
$GPGGA,145051.50,6326.3040,N,01024.5390,E,1,12,0.7,12.3,M,41.4,M,,*56
$PSIMSNS,145053.528,,1,1,0.15,-0.52,-0.01,200.49,,40,0.001,,M121*2B
$IIMWV,049,R,2.5,M,A*2A
!AIVDM,1,1,,B,33m9nt0P00PgP8rTBv2>4?w`20;k,0*04
!AIVDM,1,1,,A,13m9Tb000vPfKT6TEe>dCqs`05k8,0*46
$GPGBS,145052.50,2.2,2.3,2.8,,,,,1,1*48
!AIVDM,1,1,,B,1Cn=<t001?0cUNBTMBgi:0q`0000,0*06
!AIVDO,1,1,,,13nGtL0000PgaPLTC;h6f6Ab2000,0*3F
$GPRMC,145052.50,A,6326.3040,N,01024.5390,E,0.0,174.4,160922,4.5,E,A,S*4F
$GPVTG,174.4,T,169.9,M,0.0,N,0.0,K,A*22
$GPZDA,145052.50,16,09,2022,00,00*68
!AIVDM,2,1,7,B,53mK@M000000hq1B220hU<F2222222222222220j1H42240Ht3m4SkQ2,0*0D
!AIVDM,2,2,7,B,1BCH42C3m84m880,2*22
$GPGGA,145052.50,6326.3040,N,01024.5390,E,1,12,0.7,12.3,M,41.4,M,,*55
$PSIMSNS,145054.528,,1,1,0.15,-0.52,-0.01,200.50,,40,0.001,,M121*24
!AIVDM,1,1,,B,13m=18003m0gOLdTCMQEpDid0<0w,0*2C
$IIMWV,057,R,1.8,M,A*2B
$GPGBS,145053.50,1.7,2.1,2.3,,,,,1,1*46
!AIVDO,1,1,,,13nGtL0000PgaPLTC;h6l6Ad2000,0*33
!AIVDM,2,1,8,B,53m9nt400000hgWW7P0u8pPthlDp00000000000N0H712u<V02U4SkQ2,0*36
$GPRMC,145053.50,A,6326.3040,N,01024.5390,E,0.0,161.4,160922,4.5,E,A,S*4A
$GPVTG,161.4,T,156.9,M,0.0,N,0.0,K,A*2A
$GPZDA,145053.50,16,09,2022,00,00*69
!AIVDM,2,2,8,B,1BC@00000000000,2*5F\r\n!AIVDM,1,1,,B,33m:O15P000gd6PTCBO>4?wb0DD:,0*0C
$GPGGA,145053.50,6326.3040,N,01024.5390,E,1,12,0.7,12.3,M,41.4,M,,*54
$VDVLW,76126.93,N,15896.57,N*50
$PSIMSNS,145055.528,,1,1,0.15,-0.52,-0.01,200.50,,40,0.001,,M121*25
$IIMWV,037,R,1.3,M,A*26
$VDVBW,-0.3,,A,,,V*46
$GPGBS,145054.50,1.4,2.2,2.1,,,,,1,1*43
!AIVDM,1,1,,B,EviD:209bW5RW@9T4`@I00000002l8T4BC3G`1088;s010,4*10
!AIVDO,1,1,,,13nGtL0000PgaPLTC;h6CVAf2000,0*7E
$GPRMC,145054.50,A,6326.3040,N,01024.5390,E,0.0,153.8,160922,4.5,E,A,S*40
$GPVTG,153.8,T,149.3,M,0.0,N,0.0,K,A*23
$GPZDA,145054.50,16,09,2022,00,00*6E
$GPGGA,145054.50,6326.3040,N,01024.5390,E,1,12,0.7,12.3,M,41.4,M,,*53
$PSIMSNS,145056.528,,1,1,0.15,-0.52,-0.01,200.49,,40,0.001,,M121*2E
$IIMWV,109,R,1.0,M,A*29
!AIVDM,1,1,,A,13m=18003m0gOSfTCLlmpDih0<0w,0*2A
$GPGBS,145055.50,1.7,2.5,2.2,,,,,1,1*45
!AIVDM,1,1,,B,33mv7e0P@0PgOcPTBt`110;d00T@,0*4E
!AIVDO,1,1,,,13nGtL0000PgaPLTC;h60VAh2000,0*03
$GPRMC,145055.50,A,6326.3040,N,01024.5390,E,0.0,148.4,160922,4.5,E,A,S*47
$GPVTG,148.4,T,144.0,M,0.0,N,0.0,K,A*2B
$GPZDA,145055.50,16,09,2022,00,00*6F
!AIVDM,1,1,,B,33ot6V5P00PgK`:TBviAHwwf0000,0*7B
$GPGGA,145055.50,6326.3040,N,01024.5390,E,1,12,0.7,12.3,M,41.4,M,,*52
$PSIMSNS,145057.528,,1,1,0.14,-0.52,-0.01,200.50,,40,0.001,,M121*26
$IIMWV,114,R,1.4,M,A*21
!AIVDM,1,1,,B,13mU5G0P00Pgb6TTC;r>4?wn08Rq,0*63
!AIVDM,1,1,,B,402LoOivJH>joPekdrTE?0700<0J,0*7E
!AIVDM,1,1,,B,33mK@M5P010gVOHTC=R<EOwp2P00,0*47
!AIVDM,1,1,,A,13m7rcP002PgVP:TC=aaglKf0D0C,0*0D
$GPGBS,145056.50,1.8,2.3,2.2,,,,,1,1*4F
!AIVDO,1,1,,,13nGtL0000PgaPLTC;h5k6Aj2000,0*39
$GPRMC,145056.50,A,6326.3040,N,01024.5390,E,0.0,157.8,160922,4.5,E,A,S*46
$GPVTG,157.8,T,153.3,M,0.0,N,0.0,K,A*2C
!AIVDM,1,1,,A,33mv7e0P@0PgOcTTBt`A10;h0000,0*21
$GPZDA,145056.50,16,09,2022,00,00*6C
$GPGGA,145056.50,6326.3040,N,01024.5390,E,1,12,0.7,12.3,M,41.4,M,,*51
$VDVLW,76126.93,N,15896.57,N*50
!AIVDM,1,1,,A,13ob6@0P010gKQNTBvh:Owwp2`QT,0*67
\10\215aR\270\327\255h*-bF\4\304\326\3625/\23\26BF\10\341X\10\241\353JR\36\302\6\216\f\247+JVFT\316b\257(J
$PSIMSNS,145058.528,,1,1,0.14,-0.52,-0.01,200.49,,40,0.001,,M121*21
$IIMWV,096,R,1.7,M,A*29
!AIVDM,1,1,,B,B3m9lIP008<1e;94iQ3Q3wtQnDN:,0*76
!AIVDM,1,1,,B,13m=18003m0gO`LTCLG5pDil05k8,0*5A
$VDVBW,-0.3,,A,,,V*46
$GPGBS,145057.50,1.7,2.2,2.4,,,,,1,1*46
!AIVDO,1,1,,A,13nGtL0000PgaPLTC;h6:VAl2D0u,0*7D
!AIVDO,1,1,,,13nGtL0000PgaPLTC;h6:VAl2000,0*0D
$GPRMC,145057.50,A,6326.3040,N,01024.5390,E,0.0,154.8,160922,4.5,E,A,S*44
$GPVTG,154.8,T,150.4,M,0.0,N,0.0,K,A*2B
$GPZDA,145057.50,16,09,2022,00,00*6D
[\256\25\355e\235\353\273V\366V66\255\366v\2556\355\354\3326-vm6mv\355\355\332\332Zv\255\266\3556\225\353\267q_[ey\247\235\227\225\237\225\223\243\225\237\247}\247\223\231\233\223\243\231\237\227\237\247c\247\237\235\237\233\227\243\225\231\215\237\247u\247\237\243\237\247\235\225\221\243\217\247\235\223\237\215\233\233\247\227\243\225\247u\247}\247Y\253\227\223\345\353\267q_SWq\247\235\225\221\243\217\247W\247\235\225\231\243\231\247e\247\237\243\237\247c\247\237\243\237\247i\247}\253\233y\345\353\267q_Kw}\247\235\227\225\237\225\223\243\225\237\247\235\223\247\237\215\247\233\237\233\233\247\237\237\247\237\237\253\223y\345\353\267q_qq}\247\235\227\225\237\225\223\243\225\237\247\223\231\233\223\243\231\237\227\237\247c\247\237\235\237\233\227\243\225\231\215\237\247u\247\235\247\235\233\247\237\243\221\247\235\233\243\231\247e\247\227\235\243\227\247e\247\247\253\225\235\345\353\0[\256\25\355e\235\353\273V\366V\266\255\366v\2556-vm6mvm6\355v\355\355\332\332Zv\255\266\3556Vo\357[\327\265U+\235\353\273V\366V\266\255\366v\255\235\233\313\26666-\366v\366vm\353\332\326\366\266v6\255\226\326\354v\255\235\373\33\373v\353Vv6\355\354Z6\366\326l\266v\3556\255v\255\235\353\235\313\255\273\273V\353\267q_SWq\247\235\225\227\243\217\247W\247\235\225\237\243\227\247e\247\237\243\237\247c\247\237\243\237\247i\247}\253\233{\345\353\267q_Kw}\247\235\227\225\237\225\221\243\225\237\247\235\223\247\237\215\247\233\237\233\233\247\237\237\247\237\237\253\223w\345\353\267q_qq}\247\235\227\225\237\225\221\243\225\237\247\223\231\233\223\243\231\237\227\237\247c\247\237\235\237\233\227\243\225\231\215\237\247u\247\235\247\235\233\247\237\243\221\247\235\233\243\231\247e\247\227\235\243\227\247e\247\247\253\225\237$GPGGA,145057.50,6326.3040,N,01024.5390,E,1,12,0.7,12.3,M,41.4,M,,*50
/\23J\\\302p.\23Z\344\341J\302\306BFJ\216\0\306\206\374\330e\25FQjA\304!RB
$PSIMSNS,145059.528,,1,1,0.14,-0.53,-0.01,200.49,,40,0.001,,M121*21
!AIVDM,1,1,,A,H3mAJi4NC=Du3WG<=jnmm00@831t,0*4F
$IIMWV,100,R,2.5,M,A*26
$GPGBS,145058.50,1.7,2.2,2.3,,,,,1,1*4E
!AIVDO,1,1,,,13nGtL0000PgaPLTC;h636An2000,0*66
$GPRMC,145058.50,A,6326.3040,N,01024.5390,E,0.0,149.6,160922,4.5,E,A,S*49
$GPVTG,149.6,T,145.1,M,0.0,N,0.0,K,A*28
!AIVDM,1,1,,B,1CmJkt001I0cSehTJnbT93Ef0000,0*75
$GPZDA,145058.50,16,09,2022,00,00*62
!AIVDM,1,1,,B,13m9Tg0OhkPfe6rTChs6eEml05k8,0*66
$GPGGA,145058.50,6326.3040,N,01024.5390,E,1,12,0.7,12.3,M,41.4,M,,*5F
!AIVDM,1,1,,B,13m?1@5000PgVTVTC=D5J4IT05k8,0*0C
!AIVDM,1,1,,B,13m9Tb000kPfKODTEeN<Hqul00Rs,0*6F
\256jJ\312)\205\302F,iJ\302\216CIaJFF\322\6>\210\312\306;)JX\316r/\22J\224/\20J\\\302\vn\353\202\344\341J\302\306RFV\214\244\322F\374\30m\341R\10\327!i!k\3z\324\265\222b5/\20*-B\324\222\24\200\322\26R\6\10aZ<N\341JFF\322\26\16\210\312\306B!JB\316a\317(\212
$PSIMSNS,145100.528,,1,1,0.15,-0.52,-0.01,200.50,,40,0.001,,M121*24
$IIMWV,088,R,2.9,M,A*2B
!AIVDM,1,1,,A,13m=18003m0gOe<TCKqmp4h008Rq,0*15
$GPGBS,145059.50,1.6,2.2,2.1,,,,,1,1*4C
!AIVDO,1,1,,,13nGtL0000PgaPLTC;h5n6@02000,0*67
$GPRMC,145059.50,A,6326.3040,N,01024.5390,E,0.0,158.3,160922,4.5,E,A,S*4D
$GPVTG,158.3,T,153.8,M,0.0,N,0.0,K,A*23
$GPZDA,145059.50,16,09,2022,00,00*63
$GPGGA,145059.50,6326.3040,N,01024.5390,E,1,12,0.7,12.3,M,41.4,M,,*5E
!AIVDM,1,1,,A,B3m=cPP000;q0o94hIgQ3wP1jAL:,0*23
!AIVDM,1,1,,A,402MN7ivJH>js0gWg8TCDU?02@0:,0*30
$VDVLW,76126.93,N,15896.57,N*50
/\23\212\302-ZJ){\274\320\336F\302B\302\220\232\257\315\20\342\10qb\36\24\34J\334\275\241jF\3122\222\312A\204\322\6R\6\10\341X\10\1aT\336B\302\330p\310S\273\302\302B\306B\232\257\300\20
$PSIMSNS,145101.528,,1,1,0.15,-0.52,-0.01,200.50,,40,0.002,,M121*26
!AIVDM,1,1,,A,402M43AvJH>js0frsPTBHl70080<,0*7E
!AIVDM,1,1,,A,B3mAJi0008;nv@a4gVSQ3wP1nDe:,0*05
$IIMWV,086,R,3.4,M,A*29
!AIVDM,1,1,,B,1Cm@d30P01PcoUlTMco>4?wn2000,0*12
$GPGBS,145100.50,2.0,2.8,2.4,,,,,1,1*4B
!AIVDO,1,1,,,13nGtL0000PgaPLTC;h6;n@22000,0*6B
$VDVBW,-0.3,,A,,,V*46
$GPRMC,145100.50,A,6326.3040,N,01024.5390,E,0.0,143.6,160922,4.5,E,A,S*4F
$GPVTG,143.6,T,139.1,M,0.0,N,0.0,K,A*29
$GPZDA,145100.50,16,09,2022,00,00*6E
!AIVDM,1,1,,A,1Cmhkh00070bh>HTHhr9ND`20000,0*7E
$GPGGA,145100.50,6326.3040,N,01024.5390,E,1,12,0.7,12.3,M,41.4,M,,*53
!AIVDM,1,1,,A,13mEcl50000fdv>TCb?pj73n0<0h,0*12
$PSIMSNS,145102.528,,1,1,0.16,-0.52,-0.02,200.51,,40,0.001,,M121*27
d\341J\302\226\326\216N\216\0\302\306\302\6\322FT\354IcJ\376\30\taR\304!J\302\241\236\264\312\242\2J\26\202R\20*-B\334\222\24\20\302\26R\26(aJ<N\341JFFBar\34\247!JBFB\316s\310\10\202\222\217h\212\302%Z\\\326
!AIVDM,1,1,,B,13m=18003n0gOgTTCKbmp4h400SF,0*56
$IIMWV,090,R,3.5,M,A*2F
!AIVDM,1,1,,B,1CmwBD0OhA0aVEtTIGmBFQun0000,0*52
!AIVDM,1,1,,A,B3m90GP008;p7Ha4g>gQ3wPQnE0:,0*76
$GPGBS,145101.50,2.0,2.6,2.1,,,,,1,1*41
!AIVDO,1,1,,,13nGtL0000PgaPLTC;h5W6@42000,0*5A
$GPRMC,145101.50,A,6326.3040,N,01024.5390,E,0.0,140.8,160922,4.5,E,A,S*43
$GPVTG,140.8,T,136.3,M,0.0,N,0.0,K,A*29
$GPZDA,145101.50,16,09,2022,00,00*6F
$GPGGA,145101.50,6326.3040,N,01024.5390,E,1,12,0.7,12.3,M,41.4,M,,*52
$PSIMSNS,145103.530,,1,1,0.16,-0.52,-0.02,200.51,,40,0.001,,M121*2F
$IIMWV,076,R,3.5,M,A*27
!AIVDM,1,1,,A,1Cn=<t001?0cUUpTMCOQ90p40000,0*6B
!AIVDM,1,1,,A,13m9nt0P00PgP8rTBv34bOv42D17,0*5F
$GPGBS,145102.50,1.8,3.0,2.3,,,,,1,1*4C
!AIVDM,2,1,9,A,53m?1@800000h8dP001<uHTdpE<00000000000000h:2240002P00000,0*58
!AIVDM,2,2,9,A,000000000000000,2*2D
!AIVDO,1,1,,,13nGtL0000PgaPLTC;h5P6@62000,0*5F
$GPRMC,145102.50,A,6326.3040,N,01024.5390,E,0.0,124.0,160922,4.5,E,A,S*4A
$GPVTG,124.0,T,119.5,M,0.0,N,0.0,K,A*28
$GPZDA,145102.50,16,09,2022,00,00*6C
$GPGGA,145102.50,6326.3040,N,01024.5390,E,1,12,0.7,12.3,M,41.4,M,,*51
$VDVLW,76126.93,N,15896.57,N*50
$PSIMSNS,145104.531,,1,1,0.16,-0.53,-0.02,200.52,,40,0.001,,M121*2B
!AIVDM,1,1,,B,B3nGas0008<1Fva4k;SQ3wQ5oP06,0*44
$IIMWV,084,R,3.2,M,A*2D
!AIVDM,1,1,,A,13m=180PCm0gOnTTCJvEp4f805k<,0*37
$GPGBS,145103.50,1.8,3.1,2.3,,,,,1,1*4C
!AIVDO,1,1,,,13nGtL0000PgaPLTC;h4n6@82000,0*6E
$GPRMC,145103.50,A,6326.3040,N,01024.5390,E,0.0,141.8,160922,4.5,E,A,S*40
$GPVTG,141.8,T,137.3,M,0.0,N,0.0,K,A*29
$VDVBW,-0.3,,A,,,V*46
$GPZDA,145103.50,16,09,2022,00,00*6D
\310h[F\302\302\302\220\202\257-\v\316\10\211kR\10\221\241!aK\36*%B\324\222\f\204\245cJ\312\316Ji\362\202\312\326B\322\212,\234\376(\354\353Z\326\16B\216\0\v!h\210J)K\312aJ\306i/\23[P\302\302\302\2B\350\341Z\302\0qaR\210\227)-lK\36#\242fr\260\22\324!aK\243!Q\360\220\302FR\6\10\341X<N\351JR\26\322\26\32\210J)JV\6R\336\222\313\10\204\2/\20\204R\302\v\16k\204h\341J\302\306V\26R\224\260\326\206\375\0$GPGGA,145103.50,6326.3040,N,01024.5390,E,1,12,0.7,12.3,M,41.4,M,,*50
$PSIMSNS,145105.533,,1,1,0.15,-0.53,-0.02,200.52,,40,0.001,,M121*2B
!AIVDM,1,1,,A,13m9Tb000jPfKK:TEedL;J080@2`,0*17
$IIMWV,089,R,3.0,M,A*22
!AIVDM,1,1,,A,H3m7`jTUCBD8A4k00000000`=410,0*07
!AIVDM,1,1,,B,13mHaA004o0f76fTDQ2kq30:0<0e,0*41
$GPGBS,145104.50,2.1,3.8,2.8,,,,,1,1*43
!AIVDM,1,1,,A,H3n4Ec1<TlDp000000000000000,2*12
!AIVDO,1,1,,,13nGtL0000PgaPLTC;h5RV@:2000,0*31
$GPRMC,145104.50,A,6326.3040,N,01024.5390,E,0.0,121.7,160922,4.5,E,A,S*4E
$GPVTG,121.7,T,117.2,M,0.0,N,0.0,K,A*23
!AIVDM,1,1,,B,1CmFun00140cEi8TJcAVmURN0000,0*6B
$GPZDA,145104.50,16,09,2022,00,00*6A
$GPGGA,145104.50,6326.3040,N,01024.5390,E,1,12,0.7,12.3,M,41.4,M,,*57
$PSIMSNS,145106.534,,1,1,0.13,-0.52,-0.02,200.52,,40,0.001,,M121*28
$IIMWV,097,R,3.1,M,A*2C
!AIVDM,1,1,,B,13m=180PCm0gOsHTCJQEolf<05k<,0*51
$GPGBS,145105.50,1.8,3.2,2.5,,,,,1,1*4F
!AIVDO,1,1,,,13nGtL0000PgaPLTC;h4hF@<2000,0*1C
$GPRMC,145105.50,A,6326.3040,N,01024.5390,E,0.0,124.4,160922,4.5,E,A,S*49
$GPVTG,124.4,T,119.9,M,0.0,N,0.0,K,A*20
$GPZDA,145105.50,16,09,2022,00,00*6B
!AIVDM,1,1,,A,1Cn2pj00000cq1<TMj8@FD><0000,0*36
!AIVDM,1,1,,B,13mv7e0000PgOcbTBtWA108:0H3a,0*4A
$GPGGA,145105.50,6326.3040,N,01024.5390,E,1,12,0.7,12.3,M,41.4,M,,*56
!AIVDM,1,1,,B,13m7rcP000PgVP:TC=aEd4L805k<,0*7F
$VDVLW,76126.93,N,15896.57,N*50
$PFEC,idfnc,R,4*3C
$PSIMSNS,145107.539,,1,1,0.12,-0.52,-0.01,200.52,,40,0.001,,M121*26
$IIMWV,093,R,3.4,M,A*2D
!AIVDM,1,1,,A,402LoOivJH>k5PekdrTE?070083p,0*1B
$GPGBS,145106.50,2.2,4.4,3.4,,,,,1,1*44
!AIVDO,1,1,,,13nGtL0000PgaPLTC;h4o6@>2000,0*69
$GPRMC,145106.50,A,6326.3040,N,01024.5390,E,0.0,114.0,160922,4.5,E,A,S*4D
$GPVTG,114.0,T,109.5,M,0.0,N,0.0,K,A*2A
$GPZDA,145106.50,16,09,2022,00,00*68
!AIVDM,1,1,,B,33o:Rf5P00PgTV@TC1O>4?v>2Deb,0*31
$VDVBW,-0.3,,A,,,V*46
!AIVDM,1,1,,A,13mU5G0P00Pgb6TTC;r>4?vD00S0,0*03
$GPGGA,145106.50,6326.3040,N,01024.5390,E,1,12,0.7,12.3,M,41.4,M,,*55
$PSIMSNS,145108.540,,1,1,0.12,-0.52,-0.01,200.53,,40,0.001,,M121*26
!AIVDM,1,1,,B,13ob6@0P000gKQ`TBvi:Nwwp2`4F,0*3C
$IIMWV,072,R,3.3,M,A*25
!AIVDM,2,1,0,B,53mv7e800000hKC33N18E<=DF1DpF04mDpA<Dr0k000000rdR0888888,0*4A
!AIVDM,2,2,0,B,888888888888880,2*27
!AIVDM,1,1,,A,13m=180PCm0gP0>TCJ3mo4d@0@4P,0*52
$GPGBS,145107.50,1.8,3.3,3.2,,,,,1,1*4A
!AIVDO,1,1,,,13nGtL0000PgaPLTC;h4M6@@2000,0*35
$GPRMC,145107.50,A,6326.3040,N,01024.5390,E,0.0,114.4,160922,4.5,E,A,S*48
$GPVTG,114.4,T,109.9,M,0.0,N,0.0,K,A*22
$GPZDA,145107.50,16,09,2022,00,00*69
!AIVDO,1,1,,B,13nGtL0000PgaPLTC;h4N6@@284j,0*22
$GPGGA,145107.50,6326.3040,N,01024.5390,E,1,12,0.7,12.3,M,41.4,M,,*54
$PSIMSNS,145109.540,,1,1,0.14,-0.52,-0.01,200.53,,40,0.001,,M121*21
$IIMWV,062,R,3.0,M,A*27
!AIVDM,1,1,,A,3CmJkt001I0cStjTJnLD43D8003R,0*6A
!AIVDM,1,1,,B,13mHaA0PDo0f7NLTDPlSpjvB0@54,0*2A
$GPGBS,145108.50,2.3,4.5,4.3,,,,,1,1*4A
!AIVDO,1,1,,,13nGtL0000PgaPLTC;h4N6@B2000,0*34
$GPRMC,145108.50,A,6326.3040,N,01024.5390,E,0.0,114.4,160922,4.5,E,A,S*47
!AIVDM,1,1,,A,1CmClB00170cD0RTJTB9;GFB0000,0*6E
$GPVTG,114.4,T,109.9,M,0.0,N,0.0,K,A*22
$GPZDA,145108.50,16,09,2022,00,00*66
$GPGGA,145108.50,6326.3040,N,01024.5390,E,1,12,0.7,12.3,M,41.4,M,,*5B
!AIVDM,1,1,,A,1Co@2B0000Paec>TF2u<2m6B0000,0*40
$VDVLW,76126.93,N,15896.57,N*50
$PSIMSNS,145110.542,,1,1,0.14,-0.52,-0.01,200.52,,40,0.001,,M121*2A
$IIMWV,072,R,2.3,M,A*24
!AIVDM,1,1,,B,13m=18003m0gP5<TCIW5mldD05k<,0*61
$GPGBS,145109.50,2.3,4.4,4.0,,,,,1,1*49
!AIVDO,1,1,,,13nGtL0000PgaPLTC;h4N6@D2000,0*32
$GPRMC,145109.50,A,6326.3041,N,01024.5390,E,0.0,112.0,160922,4.5,E,A,S*45
$AIALR,030723.00,001,V,V,AIS: Tx malfunction*4E\r\n$AIALR,030723.00,002,V,V,AIS: Antenna VSWR exceeds limit*40
$AIALR,030723.00,003,V,V,AIS: Rx channel 1 malfunction*18\r\n$AIALR,030723.00,004,V,V,AIS: Rx channel 2 malfunction*1C
$AIALR,030723.00,005,V,V,AIS: Rx channel 70 malfunction*28\r\n$AIALR,030723.00,008,V,V,AIS: MKD connection lost*79
$GPVTG,112.0,T,107.5,M,0.0,N,0.0,K,A*22
$AIALR,030856.00,025,V,V,AIS: external EPFS lost*32\r\n$AIALR,030723.00,026,V,V,AIS: no position sensor in use*4F
$AIALR,030723.00,029,V,V,AIS: no valid SOG information*4A\r\n$AIALR,030723.00,030,V,V,AIS: no valid COG information*52
$AIALR,030723.00,032,V,V,AIS: Heading lost/invalid*12\r\n$AIALR,030723.00,035,V,V,AIS: no valid ROT information*55
$GPZDA,145109.50,16,09,2022,00,00*67
$AIALR,082220.00,007,V,V,AIS: UTC sync invalid*1D\r\n$AIALR,030723.00,009,V,V,AIS: internal/external GNSS position mismatch*29
$AIALR,184009.00,010,A,V,AIS: NavStatus incorrect*02
$AIALR,030723.00,011,V,V,AIS: Heading sensor offset*72\r\n$AIALR,204318.00,014,V,V,AIS: active AIS-SART*63
!AIVDM,1,1,,B,3Cmhkh00040bh>DTHhraHl`D001l,0*2D\r\n!AIVDM,1,1,,A,13m?1@5000PgVTTTC=D2tTH200S;,0*0D\r\n!AIVDM,2,1,1,B,8Ni5n=@0Bka>DhAebHC>4?ttwwwwwwwwwwwwwwwwwwwwwwwwwwwwwwww,0*3C
$GPGGA,145109.50,6326.3041,N,01024.5390,E,1,12,0.7,12.4,M,41.4,M,,*5C
!AIVDM,2,2,1,B,wwwh00,4*0F\r\n!AIVDM,1,1,,B,402MN7ivJH>k:0gWg4TCDTw02@61,0*33
$VDVBW,-0.2,,A,,,V*47
!AIVDM,1,1,,B,402M43AvJH>k90frsPTBHl700863,0*3F
$PSIMSNS,145111.544,,1,1,0.14,-0.52,-0.01,200.52,,40,0.001,,M121*2D
$IIMWV,086,R,2.1,M,A*2D
!AIVDM,1,1,,A,13m9Tg0OhhPfe8DTChB6i5rD00RT,0*74
$GPGBS,145110.50,1.6,2.5,2.3,,,,,1,1*45
!AIVDO,1,1,,,13nGtL0000PgaPLTC;hDH6@F2000,0*46
$GPRMC,145110.50,A,6326.3041,N,01024.5390,E,0.0,136.0,160922,4.5,E,A,S*4B
$GPVTG,136.0,T,131.5,M,0.0,N,0.0,K,A*21
$GPZDA,145110.50,16,09,2022,00,00*6F
$GPGGA,145110.50,6326.3041,N,01024.5390,E,1,12,0.7,12.4,M,41.4,M,,*54
$PSIMSNS,145112.544,,1,1,0.16,-0.53,-0.01,200.51,,40,0.001,,M121*2E
!AIVDM,1,1,,B,13m9Tb000hPfKFHTEett?:0F0@6b,0*4D
!AIVDM,1,1,,B,B3n>CJ0008;ovba4gTEhgwUUoP06,0*27
$IIMWV,081,R,1.5,M,A*2D
!AIVDM,1,1,,A,13m=18003m0gP:<TCI:UlTfH05k<,0*57
$GPGBS,145111.50,2.3,2.4,2.1,,,,,1,1*41
!AIVDO,1,1,,,13nGtL0000PgaPLTC;hED6@H2000,0*45
$GPRMC,145111.50,A,6326.3041,N,01024.5390,E,0.0,134.5,160922,4.5,E,A,S*4D
$GPVTG,134.5,T,130.0,M,0.0,N,0.0,K,A*22
$GPZDA,145111.50,16,09,2022,00,00*6E
$GPGGA,145111.50,6326.3041,N,01024.5390,E,1,12,0.7,12.4,M,41.4,M,,*55
$VDVLW,76126.93,N,15896.57,N*50
$PSIMSNS,145113.546,,1,1,0.15,-0.53,-0.01,200.52,,40,0.001,,M121*2D
!AIVDM,1,1,,B,1Cn=<t001?0cUdhTMD:i8PpF0000,0*18\r\n!AIVDM,1,1,,B,13m9nt0P00PgP8dTBv354?vH287B,0*1E
$IIMWV,264,R,1.1,M,A*20
!AIVDM,1,1,,A,13mEcl50000fdv:TCb@Hj72F087J,0*59
$GPGBS,145112.50,2.7,2.6,2.2,,,,,1,1*47
!AIVDO,1,1,,,13nGtL0000PgaPLTC;hE@F@J2000,0*33
$GPRMC,145112.50,A,6326.3041,N,01024.5390,E,0.0,166.9,160922,4.5,E,A,S*45
$GPVTG,166.9,T,162.4,M,0.0,N,0.0,K,A*2A
$GPZDA,145112.50,16,09,2022,00,00*6D
$GPGGA,145112.50,6326.3041,N,01024.5390,E,1,12,0.7,12.4,M,41.4,M,,*56
$PSIMSNS,145114.546,,1,1,0.13,-0.52,-0.01,200.53,,40,0.001,,M121*2C
$VDVBW,-0.2,,A,,,V*47
$IIMWV,143,R,0.8,M,A*2E
!AIVDM,1,1,,B,13m=18003m0gP?:TCHeElDfL05k<,0*0D
$GPGBS,145113.50,2.6,2.7,2.2,,,,,1,1*46
!AIVDO,1,1,,,13nGtL0000PgaPLTC;hFQF@L2000,0*27
$GPRMC,145113.50,A,6326.3041,N,01024.5390,E,0.0,156.5,160922,4.5,E,A,S*4B
$GPVTG,156.5,T,152.0,M,0.0,N,0.0,K,A*22
$GPZDA,145113.50,16,09,2022,00,00*6C
$GPGGA,145113.50,6326.3041,N,01024.5390,E,1,12,0.7,12.4,M,41.4,M,,*57
$PSIMSNS,145115.546,,1,1,0.13,-0.52,-0.01,200.52,,40,0.001,,M121*2C
$IIMWV,109,R,1.2,M,A*2B
$GPGBS,145114.50,2.4,3.0,2.2,,,,,1,1*45
!AIVDO,1,1,,,13nGtL0000PgaPLTC;hF7F@N2000,0*43
$GPRMC,145114.50,A,6326.3041,N,01024.5390,E,0.0,183.9,160922,4.5,E,A,S*48
!AIVDM,1,1,,B,B3mRN;00=`;saVa56PEoCwW5oP06,0*4B
$GPVTG,183.9,T,179.4,M,0.0,N,0.0,K,A*2B
$GPZDA,145114.50,16,09,2022,00,00*6B
$GPGGA,145114.50,6326.3041,N,01024.5390,E,1,12,0.7,12.4,M,41.4,M,,*50
!AIVDM,1,1,,A,1CmFun00130cEj4TJbS6mUPj0000,0*35
$VDVLW,76126.93,N,15896.57,N*50
$PSIMSNS,145116.546,,1,1,0.12,-0.52,-0.01,200.51,,40,0.001,,M121*2D
$IIMWV,099,R,1.8,M,A*29
!AIVDM,1,1,,A,13m=18003m0gPD8TCH@5l4dP05k<,0*4C
$GPGBS,145115.50,3.4,4.6,3.5,,,,,1,1*42
!AIVDM,1,1,,B,1Cn2pj00000cq0nTMj8PFD>P0000,0*1A
!AIVDM,1,1,,A,13m7rcP000PgVP:TC=aE4lJL0H9A,0*54
!AIVDO,1,1,,,13nGtL0000PgaPLTC;hG;n@P2000,0*78
$GPRMC,145115.50,A,6326.3041,N,01024.5390,E,0.0,184.1,160922,4.5,E,A,S*46
$GPVTG,184.1,T,179.6,M,0.0,N,0.0,K,A*26
$GPZDA,145115.50,16,09,2022,00,00*6A
$GPGGA,145115.50,6326.3041,N,01024.5390,E,1,12,0.7,12.4,M,41.4,M,,*51
!AIVDM,1,1,,B,B3nJ77000H;s0ia4lJoQ3w`1nD`b,0*69
!AIVDM,1,1,,A,13m9Tb000gPfKChTEf6LAr0N0D0p,0*33
$PSIMSNS,145117.546,,1,1,0.14,-0.52,-0.01,200.52,,40,0.001,,M121*29
$IIMWV,101,R,2.6,M,A*24
!AIVDM,1,1,,A,13mv7e0000PgOcTTBtWQ10:N0<0s,0*7C
!AIVDM,1,1,,B,402LoOivJH>k@PekdrTE?070089g,0*70
$VDVBW,-0.2,,A,,,V*47
$GPGBS,145116.50,4.0,4.9,3.8,,,,,1,1*40
!AIVDO,1,1,,,13nGtL0000PgaPLTC;hG<F@R2000,0*55
$GPRMC,145116.50,A,6326.3041,N,01024.5390,E,0.0,181.9,160922,4.5,E,A,S*48
!AIVDM,1,1,,B,13mU5G0P00Pgb6TTC;r>4?vV00Sf,0*44
$GPVTG,181.9,T,177.5,M,0.0,N,0.0,K,A*26
$GPZDA,145116.50,16,09,2022,00,00*69
$GPGGA,145116.50,6326.3041,N,01024.5390,E,1,12,0.7,12.4,M,41.4,M,,*52
!AIVDM,1,1,,B,1CmJkt001I0cT;lTJn=T6SFJ0000,0*37
$PSIMSNS,145118.546,,1,1,0.18,-0.52,-0.01,200.52,,40,0.002,,M121*29
$IIMWV,115,R,3.3,M,A*25
!AIVDM,1,1,,B,13m=18003m0gPI6TCGkEkldT0D10,0*64
$GPGBS,145117.50,2.9,3.4,2.8,,,,,1,1*45
!AIVDO,1,1,,,13nGtL0000PgaPLTC;hG6n@T2000,0*71
$GPRMC,145117.50,A,6326.3041,N,01024.5390,E,0.0,194.1,160922,4.5,E,A,S*45
!AIVDO,1,1,,A,13nGtL0000PgaPLTC;hG6n@T2@:S,0*29
$GPVTG,194.1,T,189.6,M,0.0,N,0.0,K,A*28
$GPZDA,145117.50,16,09,2022,00,00*68
$GPGGA,145117.50,6326.3041,N,01024.5390,E,1,12,0.7,12.4,M,41.4,M,,*53
$VDVLW,76126.93,N,15896.57,N*50
$PSIMSNS,145119.546,,1,1,0.19,-0.51,-0.01,200.52,,40,0.001,,M121*29
!AIVDM,1,1,,B,1Co@2B0000Paec>TF2u<2m6T0000,0*55
$IIMWV,125,R,4.1,M,A*23
!AIVDM,1,1,,A,13ob6@0P000gKQBTBvirT?wp2d1;,0*7B
$GPGBS,145118.50,2.4,2.2,1.9,,,,,1,1*42
!AIVDO,1,1,,,13nGtL0000PgaPLTC;hGUF@V2000,0*38
$GPRMC,145118.50,A,6326.3041,N,01024.5390,E,0.0,221.5,160922,4.5,E,A,S*43
!AIVDM,1,1,,B,13m?1@5001PgVTRTC=D95THD05k<,0*0F
$GPVTG,221.5,T,217.0,M,0.0,N,0.0,K,A*23
$GPZDA,145118.50,16,09,2022,00,00*67
$GPGGA,145118.50,6326.3041,N,01024.5390,E,1,12,0.7,12.4,M,41.4,M,,*5C
$PSIMSNS,145120.546,,1,1,0.19,-0.52,0.00,200.53,,40,0.002,,M121*0E
!AIVDM,1,1,,B,1CmClB00180cCknTJSka=GFV0000,0*66
$IIMWV,125,R,4.2,M,A*20
